Type of Event,Event Details,Event Date,Apply Closing Date,Link,Closing Date for Apply,Closing Time for Apply,Event Start Date,Event End Date,location,latitude,longitude
"Gandhi Shilp Bazar National, States, District",GSB (State) at Kullu,27/02/2026 to 08/03/2026,2025-11-10 23:45:00,https://indian.handicrafts.gov.in/en/events/events-apply/NTgx,2025-11-10,23:45:00,2026-02-27,2026-03-08,Kullu,31.9591246,77.1091991
"Gandhi Shilp Bazar National, States, District",GSB (State) at Udaipur,15/02/2026 to 24/02/2026,2025-10-31 23:45:00,https://indian.handicrafts.gov.in/en/events/events-apply/NTc3,2025-10-31,23:45:00,2026-02-15,2026-02-24,Udaipur,24.585445,73.712479
"Gandhi Shilp Bazar National, States, District",GSB (District) at Bareilly UH,01/02/2026 to 07/02/2026,2025-10-31 23:45:00,https://indian.handicrafts.gov.in/en/events/events-apply/NTc5,2025-10-31,23:45:00,2026-02-01,2026-02-07,Bareilly UH,28.3670355,79.4304381
"Gandhi Shilp Bazar National, States, District",GSB (District) at Shimla,10/02/2026 to 16/02/2026,2025-10-31 23:45:00,https://indian.handicrafts.gov.in/en/events/events-apply/NTgw,2025-10-31,23:45:00,2026-02-10,2026-02-16,Shimla,31.104963,77.1639874
"Gandhi Shilp Bazar National, States, District",GSB (District) at Puri UH,06/02/2026 to 12/02/2026,2025-10-31 23:30:00,https://indian.handicrafts.gov.in/en/events/events-apply/NTc4,2025-10-31,23:30:00,2026-02-06,2026-02-12,Puri UH,19.8134554,85.8312359
"Gandhi Shilp Bazar National, States, District",GSB (State) at Bokaro,25/01/2026 to 03/02/2026,2025-10-10 23:45:00,https://indian.handicrafts.gov.in/en/events/events-apply/NTYx,2025-10-10,23:45:00,2026-01-25,2026-02-03,Bokaro,23.6692956,86.15111200000001
"Gandhi Shilp Bazar National, States, District",GSB (State) at Cuttack,26/01/2026 to 04/02/2026,2025-10-10 23:45:00,https://indian.handicrafts.gov.in/en/events/events-apply/NDQy,2025-10-10,23:45:00,2026-01-26,2026-02-04,Cuttack,20.462521,85.8829895
"Gandhi Shilp Bazar National, States, District",GSB (District) at Purnia,15/11/2025 to 21/11/2025,2025-10-10 23:45:00,https://indian.handicrafts.gov.in/en/events/events-apply/NTg2,2025-10-10,23:45:00,2025-11-15,2025-11-21,Purnia,25.7771391,87.4752551
"Gandhi Shilp Bazar National, States, District",GSB (District) at Gangtok,18/01/2026 to 24/01/2026,2025-10-10 23:45:00,https://indian.handicrafts.gov.in/en/events/events-apply/NTYw,2025-10-10,23:45:00,2026-01-18,2026-01-24,Gangtok,27.3313512,88.6138113
"Gandhi Shilp Bazar National, States, District",GSB (District) at Jammu UH,15/01/2026 to 21/01/2026,2025-10-10 23:45:00,https://indian.handicrafts.gov.in/en/events/events-apply/NTU5,2025-10-10,23:45:00,2026-01-15,2026-01-21,Jammu UH,32.7266016,74.8570259
"Gandhi Shilp Bazar National, States, District",GSB (National) at Bengaluru,19/12/2025 to 28/12/2025,2025-09-30 23:45:00,https://indian.handicrafts.gov.in/en/events/events-apply/NTcz,2025-09-30,23:45:00,2025-12-19,2025-12-28,Bengaluru,12.9628669,77.57750899999999
"Gandhi Shilp Bazar National, States, District",GSB (District) at Karnal UH,09/01/2026 to 15/01/2026,2025-09-30 23:45:00,https://indian.handicrafts.gov.in/en/events/events-apply/NTU4,2025-09-30,23:45:00,2026-01-09,2026-01-15,Karnal UH,29.6856929,76.9904825
"Gandhi Shilp Bazar National, States, District",GSB (State) at Nadia,02/01/2026 to 11/01/2026,2025-09-30 23:45:00,https://indian.handicrafts.gov.in/en/events/events-apply/NTU0,2025-09-30,23:45:00,2026-01-02,2026-01-11,Nadia,23.4709656,88.55653099999999
"Gandhi Shilp Bazar National, States, District",GSB (District) at Bhubaneshwar UH,01/01/2026 to 07/01/2026,2025-09-30 23:45:00,https://indian.handicrafts.gov.in/en/events/events-apply/NTUz,2025-09-30,23:45:00,2026-01-01,2026-01-07,Bhubaneshwar UH,20.2959847,85.8246101
"Gandhi Shilp Bazar National, States, District",GSB (District) at Mokokchung,11/11/2025 to 17/11/2025,2025-09-30 23:45:00,https://indian.handicrafts.gov.in/en/events/events-apply/NTgz,2025-09-30,23:45:00,2025-11-11,2025-11-17,Mokokchung,26.3210313,94.5147156
"Gandhi Shilp Bazar National, States, District",GSB (District) at Ajmer UH,06/01/2026 to 12/01/2026,2025-09-30 23:45:00,https://indian.handicrafts.gov.in/en/events/events-apply/NTU2,2025-09-30,23:45:00,2026-01-06,2026-01-12,Ajmer UH,26.4498954,74.6399163
"Gandhi Shilp Bazar National, States, District",GSB (District) at Kanyakumari UH,05/01/2026 to 11/01/2026,2025-09-30 23:45:00,https://indian.handicrafts.gov.in/en/events/events-apply/NTU1,2025-09-30,23:45:00,2026-01-05,2026-01-11,Kanyakumari UH,8.0843512,77.54950190000001
"Gandhi Shilp Bazar National, States, District",GSB (District) at Tirupati UH,09/01/2026 to 15/01/2026,2025-09-30 23:45:00,https://indian.handicrafts.gov.in/en/events/events-apply/NTU3,2025-09-30,23:45:00,2026-01-09,2026-01-15,Tirupati UH,13.6287557,79.4191795
"Gandhi Shilp Bazar National, States, District",GSB (State) at Itanagar,09/10/2025 to 18/10/2025,2025-09-25 23:45:00,https://indian.handicrafts.gov.in/en/events/events-apply/NTg1,2025-09-25,23:45:00,2025-10-09,2025-10-18,Itanagar,27.0843682,93.6053163
"Gandhi Shilp Bazar National, States, District",GSB (National) at Mumbai,05/12/2025 to 14/12/2025,2025-09-20 23:45:00,https://indian.handicrafts.gov.in/en/events/events-apply/NTcx,2025-09-20,23:45:00,2025-12-05,2025-12-14,Mumbai,18.9581934,72.8320729
Dilli Haat,"Master Creations 2 - Padma Awardee, Shilp Guru and National Awardee",01/12/2025 to 15/12/2025,2025-09-20 23:45:00,https://indian.handicrafts.gov.in/en/events/events-apply/NTY3,2025-09-20,23:45:00,2025-12-01,2025-12-15,Delhi,28.7040592,77.10249019999999
"Gandhi Shilp Bazar National, States, District",GSB (District) at Mon,07/12/2025 to 13/12/2025,2025-09-20 23:45:00,https://indian.handicrafts.gov.in/en/events/events-apply/NTQ5,2025-09-20,23:45:00,2025-12-07,2025-12-13,Mon,41.9937012,21.4238337
"Gandhi Shilp Bazar National, States, District",GSB (National) at Patna,22/12/2025 to 31/12/2025,2025-09-15 23:45:00,https://indian.handicrafts.gov.in/en/events/events-apply/NTM4,2025-09-15,23:45:00,2025-12-22,2025-12-31,Patna,25.5940947,85.1375645
"Gandhi Shilp Bazar National, States, District",GSB (District) at Deoghar,21/12/2025 to 27/12/2025,2025-09-15 23:45:00,https://indian.handicrafts.gov.in/en/events/events-apply/NTQw,2025-09-15,23:45:00,2025-12-21,2025-12-27,Deoghar,24.485179,86.694785
"Gandhi Shilp Bazar National, States, District",GSB (District) at Durgapur UH,23/12/2025 to 29/12/2025,2025-09-15 23:45:00,https://indian.handicrafts.gov.in/en/events/events-apply/NTM5,2025-09-15,23:45:00,2025-12-23,2025-12-29,Durgapur UH,23.5204443,87.3119227
"Gandhi Shilp Bazar National, States, District",GSB (District) at Rampur UH,25/12/2025 to 31/12/2025,2025-09-15 23:45:00,https://indian.handicrafts.gov.in/en/events/events-apply/NTQx,2025-09-15,23:45:00,2025-12-25,2025-12-31,Rampur UH,28.798299,79.02202869999999
"Gandhi Shilp Bazar National, States, District",GSB (State) at Jaisalmer,26/12/2025 to 04/01/2026,2025-09-15 23:45:00,https://indian.handicrafts.gov.in/en/events/events-apply/NTQz,2025-09-15,23:45:00,2025-12-26,2026-01-04,Jaisalmer,26.9157487,70.9083443
"Gandhi Shilp Bazar National, States, District",GSB (District) at Mangaluru UH,24/12/2025 to 30/12/2025,2025-09-15 23:45:00,https://indian.handicrafts.gov.in/en/events/events-apply/NTQy,2025-09-15,23:45:00,2025-12-24,2025-12-30,Mangaluru UH,12.8854777,74.8388112
"Gandhi Shilp Bazar National, States, District",GSB (District) at Agra UH,17/11/2025 to 23/11/2025,2025-09-15 23:45:00,https://indian.handicrafts.gov.in/en/events/events-apply/NTcy,2025-09-15,23:45:00,2025-11-17,2025-11-23,Agra UH,27.1766701,78.00807449999999
"Gandhi Shilp Bazar National, States, District",GSB (District) at Shantiniketan UH,15/12/2025 to 21/12/2025,2025-09-10 23:45:00,https://indian.handicrafts.gov.in/en/events/events-apply/NTMx,2025-09-10,23:45:00,2025-12-15,2025-12-21,Shantiniketan UH,23.6776471,87.6852323
"Gandhi Shilp Bazar National, States, District",GSB (District) at Guntur UH,19/12/2025 to 25/12/2025,2025-09-10 23:45:00,https://indian.handicrafts.gov.in/en/events/events-apply/NTM1,2025-09-10,23:45:00,2025-12-19,2025-12-25,Guntur UH,16.3066525,80.4365402
"Gandhi Shilp Bazar National, States, District",GSB (District) at Gwalior,12/12/2025 to 18/12/2025,2025-09-10 23:45:00,https://indian.handicrafts.gov.in/en/events/events-apply/NTI5,2025-09-10,23:45:00,2025-12-12,2025-12-18,Gwalior,26.2124007,78.1772053
"Gandhi Shilp Bazar National, States, District",GSB (District) at Aurangabad,16/12/2025 to 22/12/2025,2025-09-10 23:45:00,https://indian.handicrafts.gov.in/en/events/events-apply/NTMy,2025-09-10,23:45:00,2025-12-16,2025-12-22,Aurangabad,19.875754,75.3393195
"Gandhi Shilp Bazar National, States, District",GSB (State) at Pune,18/12/2025 to 27/12/2025,2025-09-10 23:45:00,https://indian.handicrafts.gov.in/en/events/events-apply/NTMz,2025-09-10,23:45:00,2025-12-18,2025-12-27,Pune,18.5246091,73.8786239
"Gandhi Shilp Bazar National, States, District",GSB (District) at Rajamundry,15/12/2025 to 21/12/2025,2025-09-10 23:45:00,https://indian.handicrafts.gov.in/en/events/events-apply/NTMw,2025-09-10,23:45:00,2025-12-15,2025-12-21,Rajamundry,17.0005383,81.8040345
"Gandhi Shilp Bazar National, States, District",GSB (State) at Cochin,20/12/2025 to 29/12/2025,2025-09-10 23:45:00,https://indian.handicrafts.gov.in/en/events/events-apply/NTM2,2025-09-10,23:45:00,2025-12-20,2025-12-29,Cochin,9.9312328,76.26730409999999
"Gandhi Shilp Bazar National, States, District",GSB (State) at Kolkata,15/09/2025 to 24/09/2025,2025-09-10 23:45:00,https://indian.handicrafts.gov.in/en/events/events-apply/NTg0,2025-09-10,23:45:00,2025-09-15,2025-09-24,Kolkata,22.5743545,88.3628734
"Gandhi Shilp Bazar National, States, District",GSB (National) at Chennai,19/12/2025 to 28/12/2025,2025-09-10 23:45:00,https://indian.handicrafts.gov.in/en/events/events-apply/NTM0,2025-09-10,23:45:00,2025-12-19,2025-12-28,Chennai,13.0843007,80.2704622
"Gandhi Shilp Bazar National, States, District",GSB (District) at Shantiniketan UH,15/12/2025 to 21/12/2025,2025-09-10 23:45:00,https://indian.handicrafts.gov.in/en/events/events-apply/NTMx,2025-09-10,23:45:00,2025-12-15,2025-12-21,Shantiniketan UH,23.6776471,87.6852323
"Gandhi Shilp Bazar National, States, District",GSB (District) at Bhuj UH,01/12/2025 to 07/12/2025,2025-09-05 23:45:00,https://indian.handicrafts.gov.in/en/events/view/NTIw,2025-09-05,23:45:00,2025-12-01,2025-12-07,Bhuj UH,23.2419997,69.6669324
"Gandhi Shilp Bazar National, States, District",GSB (District) at Agra UH,01/12/2025 to 07/12/2025,2025-09-05 23:45:00,https://indian.handicrafts.gov.in/en/events/view/NTE3,2025-09-05,23:45:00,2025-12-01,2025-12-07,Agra UH,27.1766701,78.00807449999999
"Gandhi Shilp Bazar National, States, District",GSB (District) at Navi Mumbai UH,06/12/2025 to 12/12/2025,2025-09-05 23:45:00,https://indian.handicrafts.gov.in/en/events/view/NTQ3,2025-09-05,23:45:00,2025-12-06,2025-12-12,Navi Mumbai UH,19.0330488,73.0296625
"Gandhi Shilp Bazar National, States, District",GSB (State) at Bhilai,05/12/2025 to 14/12/2025,2025-09-05 23:45:00,https://indian.handicrafts.gov.in/en/events/view/NTY5,2025-09-05,23:45:00,2025-12-05,2025-12-14,Bhilai,21.1938475,81.3509416
"Gandhi Shilp Bazar National, States, District",GSB (District) at Hazaribagh UH,10/12/2025 to 16/12/2025,2025-09-05 23:45:00,https://indian.handicrafts.gov.in/en/events/view/NTIz,2025-09-05,23:45:00,2025-12-10,2025-12-16,Hazaribagh UH,23.9924669,85.3636758
"Gandhi Shilp Bazar National, States, District",GSB (District) at Jodhpur UH,04/12/2025 to 10/12/2025,2025-09-05 23:45:00,https://indian.handicrafts.gov.in/en/events/view/NTIy,2025-09-05,23:45:00,2025-12-04,2025-12-10,Jodhpur UH,26.2389469,73.02430939999999
"Gandhi Shilp Bazar National, States, District",GSB (District) at Imphal UH,08/12/2025 to 14/12/2025,2025-09-05 23:45:00,https://indian.handicrafts.gov.in/en/events/view/NTI4,2025-09-05,23:45:00,2025-12-08,2025-12-14,Imphal UH,24.8107515,93.9386097
"Gandhi Shilp Bazar National, States, District",GSB (District) at Jaipur UH,03/12/2025 to 09/12/2025,2025-09-05 23:45:00,https://indian.handicrafts.gov.in/en/events/view/NTIx,2025-09-05,23:45:00,2025-12-03,2025-12-09,Jaipur UH,26.9124336,75.7872709
"Gandhi Shilp Bazar National, States, District",GSB (District) at Konark UH,01/12/2025 to 07/12/2025,2025-09-05 23:45:00,https://indian.handicrafts.gov.in/en/events/view/NTE5,2025-09-05,23:45:00,2025-12-01,2025-12-07,Konark UH,19.8920686,86.091184
"Gandhi Shilp Bazar National, States, District",GSB (District) at Pudducherry,05/12/2025 to 11/12/2025,2025-09-05 23:45:00,https://indian.handicrafts.gov.in/en/events/view/NTUy,2025-09-05,23:45:00,2025-12-05,2025-12-11,Pudducherry,11.9415915,79.8083133
"Gandhi Shilp Bazar National, States, District",GSB (State) at Ujjain,05/12/2025 to 14/12/2025,2025-09-05 23:45:00,https://indian.handicrafts.gov.in/en/events/view/NTQ0,2025-09-05,23:45:00,2025-12-05,2025-12-14,Ujjain,23.1764665,75.7885163
"Gandhi Shilp Bazar National, States, District",GSB (District) at Kohima,02/12/2025 to 08/12/2025,2025-09-05 23:45:00,https://indian.handicrafts.gov.in/en/events/view/NTI3,2025-09-05,23:45:00,2025-12-02,2025-12-08,Kohima,25.6742421,94.1085937
"Gandhi Shilp Bazar National, States, District",GSB (District) at Kolhapur,21/11/2025 to 27/11/2025,2025-08-31 23:45:00,https://indian.handicrafts.gov.in/en/events/view/NTE1,2025-08-31,23:45:00,2025-11-21,2025-11-27,Kolhapur,16.706369,74.2481772
"Gandhi Shilp Bazar National, States, District",Gandhi Shilp Bazaar,20/09/2025 to 29/09/2025,2025-08-31 23:45:00,https://indian.handicrafts.gov.in/en/events/view/NTc2,2025-08-31,23:45:00,2025-09-20,2025-09-29,,18.7874192,100.7762883
"Gandhi Shilp Bazar National, States, District",GSB (District) at Varanasi UH,14/10/2025 to 20/10/2025,2025-08-31 23:45:00,https://indian.handicrafts.gov.in/en/events/view/NTE4,2025-08-31,23:45:00,2025-10-14,2025-10-20,Varanasi UH,25.3176452,82.9739144
"Gandhi Shilp Bazar National, States, District",GSB (State) at Nashik,20/11/2025 to 29/11/2025,2025-08-31 23:45:00,https://indian.handicrafts.gov.in/en/events/view/NTEy,2025-08-31,23:45:00,2025-11-20,2025-11-29,Nashik,19.9993217,73.79001880000001
"Gandhi Shilp Bazar National, States, District",GSB (District) at Katra,21/11/2025 to 27/11/2025,2025-08-31 23:45:00,https://indian.handicrafts.gov.in/en/events/view/NTE0,2025-08-31,23:45:00,2025-11-21,2025-11-27,Katra,32.99149620000001,74.93181729999999
"Gandhi Shilp Bazar National, States, District",GSB (District) at Navi Mumbai UH,07/11/2025 to 13/11/2025,2025-08-31 23:45:00,https://indian.handicrafts.gov.in/en/events/view/NTcw,2025-08-31,23:45:00,2025-11-07,2025-11-13,Navi Mumbai UH,19.0330488,73.0296625
"Gandhi Shilp Bazar National, States, District",GSB (District) at Indore UH,23/11/2025 to 29/11/2025,2025-08-31 23:45:00,https://indian.handicrafts.gov.in/en/events/view/NTE2,2025-08-31,23:45:00,2025-11-23,2025-11-29,Indore UH,22.7195687,75.8577258
"Gandhi Shilp Bazar National, States, District",GSB (District) at Konark UH,21/11/2025 to 27/11/2025,2025-08-30 23:45:00,https://indian.handicrafts.gov.in/en/events/view/NTQ4,2025-08-30,23:45:00,2025-11-21,2025-11-27,Konark UH,19.8920686,86.091184
"Gandhi Shilp Bazar National, States, District",GSB (District) at Ajmer UH,12/11/2025 to 18/11/2025,2025-08-25 23:45:00,https://indian.handicrafts.gov.in/en/events/view/NTA4,2025-08-25,23:45:00,2025-11-12,2025-11-18,Ajmer UH,26.4498954,74.6399163
"Gandhi Shilp Bazar National, States, District",GSB (State) at Karnal,14/11/2025 to 23/11/2025,2025-08-25 23:45:00,https://indian.handicrafts.gov.in/en/events/view/NTI2,2025-08-25,23:45:00,2025-11-14,2025-11-23,Karnal,29.6856929,76.9904825
"Gandhi Shilp Bazar National, States, District",GSB (District) at Gorakhpur,15/11/2025 to 21/11/2025,2025-08-25 23:45:00,https://indian.handicrafts.gov.in/en/events/view/NTEw,2025-08-25,23:45:00,2025-11-15,2025-11-21,Gorakhpur,26.7605545,83.3731675
"Gandhi Shilp Bazar National, States, District",GSB (District) at Jhansi UH,15/11/2025 to 21/11/2025,2025-08-25 23:45:00,https://indian.handicrafts.gov.in/en/events/view/NTEx,2025-08-25,23:45:00,2025-11-15,2025-11-21,Jhansi UH,25.4487699,78.5697526
"Gandhi Shilp Bazar National, States, District",GSB (District) at Ajmer UH,12/11/2025 to 18/11/2025,2025-08-25 23:45:00,https://indian.handicrafts.gov.in/en/events/view/NTA4,2025-08-25,23:45:00,2025-11-12,2025-11-18,Ajmer UH,26.4498954,74.6399163
"Gandhi Shilp Bazar National, States, District",GSB (District) at Janpath,17/11/2025 to 23/11/2025,2025-08-25 23:45:00,https://indian.handicrafts.gov.in/en/events/view/NTUw,2025-08-25,23:45:00,2025-11-17,2025-11-23,Janpath,28.6278172,77.2189594
"Gandhi Shilp Bazar National, States, District",GSB (District) at Ahmedabad UH,12/11/2025 to 18/11/2025,2025-08-25 11:45:00,https://indian.handicrafts.gov.in/en/events/view/NTY4,2025-08-25,11:45:00,2025-11-12,2025-11-18,Ahmedabad UH,23.022505,72.5713621
Dilli Haat,Master Creations 1 - NMC & State Awardee,16/10/2025 to 31/10/2025,2025-08-20 23:45:00,https://indian.handicrafts.gov.in/en/events/view/NTY2,2025-08-20,23:45:00,2025-10-16,2025-10-31,Delhi,28.7040592,77.10249019999999
"Gandhi Shilp Bazar National, States, District",GSB (State) at Srinagar,01/10/2025 to 10/10/2025,2025-08-20 23:45:00,https://indian.handicrafts.gov.in/en/events/view/NDMx,2025-08-20,23:45:00,2025-10-01,2025-10-10,Srinagar,34.0836708,74.7972825
"Gandhi Shilp Bazar National, States, District",GSB (District) at Mandi,03/11/2025 to 09/11/2025,2025-08-20 23:45:00,https://indian.handicrafts.gov.in/en/events/view/NTAx,2025-08-20,23:45:00,2025-11-03,2025-11-09,Mandi,31.7087153,76.9320104
"Gandhi Shilp Bazar National, States, District",GSB (District) at Bhopal UH,05/11/2025 to 11/11/2025,2025-08-20 23:45:00,https://indian.handicrafts.gov.in/en/events/view/NTA0,2025-08-20,23:45:00,2025-11-05,2025-11-11,Bhopal UH,23.2599333,77.412615
"Gandhi Shilp Bazar National, States, District",GSB (District) at Kakinada UH,03/11/2025 to 09/11/2025,2025-08-20 23:45:00,https://indian.handicrafts.gov.in/en/events/view/NTAz,2025-08-20,23:45:00,2025-11-03,2025-11-09,Kakinada UH,16.9890648,82.2474648
"Gandhi Shilp Bazar National, States, District",GSB (District) at Cherapunji,01/11/2025 to 07/11/2025,2025-08-20 23:45:00,https://indian.handicrafts.gov.in/en/events/view/NDk5,2025-08-20,23:45:00,2025-11-01,2025-11-07,Cherapunji,25.2702095,91.7322884
"Gandhi Shilp Bazar National, States, District",GSB (District) at Bhuj UH,01/11/2025 to 07/11/2025,2025-08-20 23:45:00,https://indian.handicrafts.gov.in/en/events/view/NTAw,2025-08-20,23:45:00,2025-11-01,2025-11-07,Bhuj UH,23.2419997,69.6669324
"Gandhi Shilp Bazar National, States, District",GSB (National) at Varanasi,01/11/2025 to 10/11/2025,2025-08-20 23:45:00,https://indian.handicrafts.gov.in/en/events/view/NDk3,2025-08-20,23:45:00,2025-11-01,2025-11-10,Varanasi,25.3176452,82.9739144
"Gandhi Shilp Bazar National, States, District",GSB (State) at Kanpur,01/11/2025 to 10/11/2025,2025-08-20 23:45:00,https://indian.handicrafts.gov.in/en/events/view/NDk2,2025-08-20,23:45:00,2025-11-01,2025-11-10,Kanpur,26.449923,80.3318736
"Gandhi Shilp Bazar National, States, District",GSB (District) at Tirupati UH,03/11/2025 to 09/11/2025,2025-08-20 23:45:00,https://indian.handicrafts.gov.in/en/events/view/NTAy,2025-08-20,23:45:00,2025-11-03,2025-11-09,Tirupati UH,13.6287557,79.4191795
"Gandhi Shilp Bazar National, States, District",GSB (National) at Ahmedabad,12/09/2025 to 21/09/2025,2025-08-20 23:45:00,https://indian.handicrafts.gov.in/en/events/view/NTc1,2025-08-20,23:45:00,2025-09-12,2025-09-21,Ahmedabad,23.022505,72.5713621
"Gandhi Shilp Bazar National, States, District",GSB (District) at Bhubaneshwar UH,01/11/2025 to 07/11/2025,2025-08-20 23:45:00,https://indian.handicrafts.gov.in/en/events/view/NDk4,2025-08-20,23:45:00,2025-11-01,2025-11-07,Bhubaneshwar UH,20.2959847,85.8246101
"Gandhi Shilp Bazar National, States, District",GSB (State) at Prayagraj,08/11/2025 to 17/11/2025,2025-08-20 23:45:00,https://indian.handicrafts.gov.in/en/events/view/NTA2,2025-08-20,23:45:00,2025-11-08,2025-11-17,Prayagraj,25.468338,81.85460189999999
"Gandhi Shilp Bazar National, States, District",GSB (District) at Gaya,07/11/2025 to 13/11/2025,2025-08-20 23:45:00,https://indian.handicrafts.gov.in/en/events/view/NTA1,2025-08-20,23:45:00,2025-11-07,2025-11-13,Gaya,24.7913957,85.0002336
"Gandhi Shilp Bazar National, States, District",GSB (State) at Surat,01/11/2025 to 10/11/2025,2025-08-20 23:45:00,https://indian.handicrafts.gov.in/en/events/view/NTY1,2025-08-20,23:45:00,2025-11-01,2025-11-10,Surat,21.1702401,72.83106070000001
"Gandhi Shilp Bazar National, States, District",GSB (District) at Jagdalpur,30/09/2025 to 06/10/2025,2025-08-15 23:45:00,https://indian.handicrafts.gov.in/en/events/view/NTYz,2025-08-15,23:45:00,2025-09-30,2025-10-06,Jagdalpur,19.0861377,82.0188426
"Gandhi Shilp Bazar National, States, District",GSB (District) at Kokrajhar,19/10/2025 to 25/10/2025,2025-08-15 23:45:00,https://indian.handicrafts.gov.in/en/events/view/NDkw,2025-08-15,23:45:00,2025-10-19,2025-10-25,Kokrajhar,26.4021196,90.27056789999999
"Gandhi Shilp Bazar National, States, District",GSB (District) at Jaipur UH,21/10/2025 to 27/10/2025,2025-08-15 23:45:00,https://indian.handicrafts.gov.in/en/events/view/NDkx,2025-08-15,23:45:00,2025-10-21,2025-10-27,Jaipur UH,26.9124336,75.7872709
"Gandhi Shilp Bazar National, States, District",GSB (District) at Madgaon,26/10/2025 to 01/11/2025,2025-08-15 23:45:00,https://indian.handicrafts.gov.in/en/events/view/NDkz,2025-08-15,23:45:00,2025-10-26,2025-11-01,Madgaon,15.2859239,73.97869140000002
"Gandhi Shilp Bazar National, States, District",GSB (State) at Banglore (Bengaluru),24/10/2025 to 02/11/2025,2025-08-15 23:45:00,https://indian.handicrafts.gov.in/en/events/view/NTI1,2025-08-15,23:45:00,2025-10-24,2025-11-02,Banglore (Bengaluru),12.9628669,77.57750899999999
"Gandhi Shilp Bazar National, States, District",GSB (District) at Bhopal UH,01/09/2025 to 07/09/2025,2025-08-15 23:45:00,https://indian.handicrafts.gov.in/en/events/view/NTc0,2025-08-15,23:45:00,2025-09-01,2025-09-07,Bhopal UH,23.2599333,77.412615
"Gandhi Shilp Bazar National, States, District",GSB (District) at Durg,22/10/2025 to 28/10/2025,2025-08-15 23:45:00,https://indian.handicrafts.gov.in/en/events/view/NDky,2025-08-15,23:45:00,2025-10-22,2025-10-28,Durg,21.1904494,81.2849169
"Gandhi Shilp Bazar National, States, District",GSB (District) at Kolkata UH,17/10/2025 to 23/10/2025,2025-08-15 23:45:00,https://indian.handicrafts.gov.in/en/events/view/NDg5,2025-08-15,23:45:00,2025-10-17,2025-10-23,Kolkata UH,22.5743545,88.3628734
"Gandhi Shilp Bazar National, States, District",GSB (State) at Trivendrum,27/10/2025 to 05/11/2025,2025-08-15 23:45:00,https://indian.handicrafts.gov.in/en/events/view/NDk0,2025-08-15,23:45:00,2025-10-27,2025-11-05,Trivendrum,8.5241391,76.9366376
"Gandhi Shilp Bazar National, States, District",GSB (District) at Jammu UH,11/10/2025 to 17/10/2025,2025-08-10 23:45:00,https://indian.handicrafts.gov.in/en/events/view/NDgx,2025-08-10,23:45:00,2025-10-11,2025-10-17,Jammu UH,32.7266016,74.8570259
"Gandhi Shilp Bazar National, States, District",GSB (District) at Dhanbad,12/10/2025 to 18/10/2025,2025-08-10 23:45:00,https://indian.handicrafts.gov.in/en/events/view/NDgy,2025-08-10,23:45:00,2025-10-12,2025-10-18,Dhanbad,23.7956531,86.43038589999999
"Gandhi Shilp Bazar National, States, District",GSB (District) at Haldwani,15/10/2025 to 21/10/2025,2025-08-10 23:45:00,https://indian.handicrafts.gov.in/en/events/view/NDg3,2025-08-10,23:45:00,2025-10-15,2025-10-21,Haldwani,29.2182644,79.5129767
"Gandhi Shilp Bazar National, States, District",GSB (District) at Agartala UH,11/10/2025 to 17/10/2025,2025-08-10 23:45:00,https://indian.handicrafts.gov.in/en/events/view/NDgw,2025-08-10,23:45:00,2025-10-11,2025-10-17,Agartala UH,23.831457,91.2867777
"Gandhi Shilp Bazar National, States, District",GSB (District) at Imphal,14/10/2025 to 20/10/2025,2025-08-10 23:45:00,https://indian.handicrafts.gov.in/en/events/view/NDg1,2025-08-10,23:45:00,2025-10-14,2025-10-20,Imphal,24.8107515,93.9386097
"Gandhi Shilp Bazar National, States, District",GSB (District) at Srinagar UH,15/10/2025 to 21/10/2025,2025-08-10 23:45:00,https://indian.handicrafts.gov.in/en/events/view/NDg4,2025-08-10,23:45:00,2025-10-15,2025-10-21,Srinagar UH,34.0836708,74.7972825
"Gandhi Shilp Bazar National, States, District",GSB (District) at Mathura,13/10/2025 to 19/10/2025,2025-08-10 23:45:00,https://indian.handicrafts.gov.in/en/events/view/NDg0,2025-08-10,23:45:00,2025-10-13,2025-10-19,Mathura,27.4924134,77.673673
"Gandhi Shilp Bazar National, States, District",GSB (District) at Mangaluru UH,15/10/2025 to 21/10/2025,2025-08-10 23:45:00,https://indian.handicrafts.gov.in/en/events/view/NDg2,2025-08-10,23:45:00,2025-10-15,2025-10-21,Mangaluru UH,12.8854777,74.8388112
"Gandhi Shilp Bazar National, States, District",GSB (State) at Vijayawada,10/10/2025 to 19/10/2025,2025-08-10 23:45:00,https://indian.handicrafts.gov.in/en/events/view/NDc5,2025-08-10,23:45:00,2025-10-10,2025-10-19,Vijayawada,16.5061743,80.6480153
"Gandhi Shilp Bazar National, States, District",GSB (State) at Amritsar,10/10/2025 to 19/10/2025,2025-08-10 23:45:00,https://indian.handicrafts.gov.in/en/events/view/NDc4,2025-08-10,23:45:00,2025-10-10,2025-10-19,Amritsar,31.6339793,74.8722642
"Gandhi Shilp Bazar National, States, District",GSB (District) at Bareilly UH,13/10/2025 to 19/10/2025,2025-08-10 23:45:00,https://indian.handicrafts.gov.in/en/events/view/NDgz,2025-08-10,23:45:00,2025-10-13,2025-10-19,Bareilly UH,28.3670355,79.4304381
"Gandhi Shilp Bazar National, States, District",GSB (National) at Hyderabad,03/10/2025 to 12/10/2025,2025-07-31 23:45:00,https://indian.handicrafts.gov.in/en/events/view/NDY5,2025-07-31,23:45:00,2025-10-03,2025-10-12,Hyderabad,17.406498,78.47724389999999
"Gandhi Shilp Bazar National, States, District",GSB (District) at Jodhpur UH,03/10/2025 to 09/10/2025,2025-07-31 23:45:00,https://indian.handicrafts.gov.in/en/events/view/NDcz,2025-07-31,23:45:00,2025-10-03,2025-10-09,Jodhpur UH,26.2389469,73.02430939999999
"Gandhi Shilp Bazar National, States, District",GSB (District) at Varanasi UH,05/10/2025 to 11/10/2025,2025-07-31 23:45:00,https://indian.handicrafts.gov.in/en/events/view/NTEz,2025-07-31,23:45:00,2025-10-05,2025-10-11,Varanasi UH,25.3176452,82.9739144
"Gandhi Shilp Bazar National, States, District",GSB (National) at Lucknow,08/10/2025 to 17/10/2025,2025-07-31 23:45:00,https://indian.handicrafts.gov.in/en/events/view/NDc3,2025-07-31,23:45:00,2025-10-08,2025-10-17,Lucknow,26.8466937,80.94616599999999
"Gandhi Shilp Bazar National, States, District",GSB (District) at Rajkot,07/10/2025 to 13/10/2025,2025-07-31 23:45:00,https://indian.handicrafts.gov.in/en/events/view/NDc2,2025-07-31,23:45:00,2025-10-07,2025-10-13,Rajkot,22.3038945,70.80215989999999
"Gandhi Shilp Bazar National, States, District",GSB (State) at Jabalpur,01/09/2025 to 10/09/2025,2025-07-31 23:45:00,https://indian.handicrafts.gov.in/en/events/view/NTUx,2025-07-31,23:45:00,2025-09-01,2025-09-10,Jabalpur,23.1685786,79.9338798
"Gandhi Shilp Bazar National, States, District",GSB (District) at Agra,01/10/2025 to 07/10/2025,2025-07-31 23:45:00,https://indian.handicrafts.gov.in/en/events/view/NDcx,2025-07-31,23:45:00,2025-10-01,2025-10-07,Agra,27.1766701,78.00807449999999
"Gandhi Shilp Bazar National, States, District",GSB (District) at Darbhanga,06/10/2025 to 12/10/2025,2025-07-31 23:45:00,https://indian.handicrafts.gov.in/en/events/view/NDc1,2025-07-31,23:45:00,2025-10-06,2025-10-12,Darbhanga,26.1542045,85.8918454
"Gandhi Shilp Bazar National, States, District",GSB (State) at Panaji,03/10/2025 to 12/10/2025,2025-07-31 23:45:00,https://indian.handicrafts.gov.in/en/events/view/NDcw,2025-07-31,23:45:00,2025-10-03,2025-10-12,Panaji,15.5009538,73.8293928
"Gandhi Shilp Bazar National, States, District",GSB (District) at Puri UH,03/10/2025 to 09/10/2025,2025-07-31 23:45:00,https://indian.handicrafts.gov.in/en/events/view/NDcy,2025-07-31,23:45:00,2025-10-03,2025-10-09,Puri UH,19.8134554,85.8312359
"Gandhi Shilp Bazar National, States, District",GSB (District) at Tiruvanamalai,03/10/2025 to 09/10/2025,2025-07-31 23:45:00,https://indian.handicrafts.gov.in/en/events/view/NDc0,2025-07-31,23:45:00,2025-10-03,2025-10-09,Tiruvanamalai,12.2252841,79.07469569999999
"Gandhi Shilp Bazar National, States, District",GSB (State) at Nagpur,04/10/2025 to 13/10/2025,2025-07-31 23:45:00,https://indian.handicrafts.gov.in/en/events/view/NDk1,2025-07-31,23:45:00,2025-10-04,2025-10-13,Nagpur,21.1458004,79.0881546
"Gandhi Shilp Bazar National, States, District",GSB (District) at Kakinada UH,29/09/2025 to 05/10/2025,2025-07-25 23:45:00,https://indian.handicrafts.gov.in/en/events/view/NDY3,2025-07-25,23:45:00,2025-09-29,2025-10-05,Kakinada UH,16.9890648,82.2474648
"Gandhi Shilp Bazar National, States, District",GSB (State) at Ranchi,19/09/2025 to 28/09/2025,2025-07-15 23:45:00,https://indian.handicrafts.gov.in/en/events/view/NDQx,2025-07-15,23:45:00,2025-09-19,2025-09-28,Ranchi,23.3440997,85.309562
"Gandhi Shilp Bazar National, States, District",GSB (State) at Ludhiana City,19/09/2025 to 28/09/2025,2025-07-15 23:45:00,https://indian.handicrafts.gov.in/en/events/view/NDY4,2025-07-15,23:45:00,2025-09-19,2025-09-28,Ludhiana City,30.900965,75.8572758
"Gandhi Shilp Bazar National, States, District",GSB (State) at Shillong,15/09/2025 to 24/09/2025,2025-07-15 23:45:00,https://indian.handicrafts.gov.in/en/events/view/NDI0,2025-07-15,23:45:00,2025-09-15,2025-09-24,Shillong,25.5787726,91.8932535
"Gandhi Shilp Bazar National, States, District",GSB (District) at Gandhinagar,31/07/2025 to 06/08/2025,2025-07-15 23:45:00,https://indian.handicrafts.gov.in/en/events/view/NTY0,2025-07-15,23:45:00,2025-07-31,2025-08-06,Gandhinagar,23.2156354,72.63694149999999
"Gandhi Shilp Bazar National, States, District",GSB (District) at Karnal UH,20/09/2025 to 26/09/2025,2025-07-15 23:45:00,https://indian.handicrafts.gov.in/en/events/view/NDI5,2025-07-15,23:45:00,2025-09-20,2025-09-26,Karnal UH,29.6856929,76.9904825
"Gandhi Shilp Bazar National, States, District",GSB (District) at Rampur UH,25/09/2025 to 01/10/2025,2025-07-15 23:45:00,https://indian.handicrafts.gov.in/en/events/view/NDUy,2025-07-15,23:45:00,2025-09-25,2025-10-01,Rampur UH,28.798299,79.02202869999999
"Gandhi Shilp Bazar National, States, District",GSB (State) at Puducherry,12/09/2025 to 21/09/2025,2025-07-10 23:45:00,https://indian.handicrafts.gov.in/en/events/view/NDM5,2025-07-10,23:45:00,2025-09-12,2025-09-21,Puducherry,11.9415915,79.8083133
"Gandhi Shilp Bazar National, States, District",GSB (District) at Guntur UH,22/09/2025 to 28/09/2025,2025-07-10 23:45:00,https://indian.handicrafts.gov.in/en/events/view/NDU1,2025-07-10,23:45:00,2025-09-22,2025-09-28,Guntur UH,16.3066525,80.4365402
"Gandhi Shilp Bazar National, States, District",GSB (National) at Mysuru UH,12/09/2025 to 21/09/2025,2025-07-10 23:45:00,https://indian.handicrafts.gov.in/en/events/view/NDQw,2025-07-10,23:45:00,2025-09-12,2025-09-21,Mysuru UH,12.2958104,76.6393805
"Gandhi Shilp Bazar National, States, District",GSB (District) at Howrah,16/09/2025 to 22/09/2025,2025-07-10 23:30:00,https://indian.handicrafts.gov.in/en/events/view/NDUx,2025-07-10,23:30:00,2025-09-16,2025-09-22,Howrah,22.5818019,88.33621749999999
Dilli Haat,Dilli Haat - Artisans Practicing Artistic Textiles Crafts,01/08/2025 to 15/08/2025,2025-07-06 23:45:00,https://indian.handicrafts.gov.in/en/events/view/NTYy,2025-07-06,23:45:00,2025-08-01,2025-08-15,Delhi,28.7040592,77.10249019999999
"Gandhi Shilp Bazar National, States, District",GSB (District) at Muzaffarpur,09/09/2025 to 15/09/2025,2025-07-05 23:45:00,https://indian.handicrafts.gov.in/en/events/view/NDM4,2025-07-05,23:45:00,2025-09-09,2025-09-15,Muzaffarpur,26.1196607,85.390982
"Gandhi Shilp Bazar National, States, District",GSB (District) at Durgapur UH,12/09/2025 to 18/09/2025,2025-07-05 23:45:00,https://indian.handicrafts.gov.in/en/events/view/NDY2,2025-07-05,23:45:00,2025-09-12,2025-09-18,Durgapur UH,23.5204443,87.3119227
"Gandhi Shilp Bazar National, States, District",GSB (District) at Imphal UH,08/09/2025 to 14/09/2025,2025-06-30 23:45:00,https://indian.handicrafts.gov.in/en/events/view/NDIz,2025-06-30,23:45:00,2025-09-08,2025-09-14,Imphal UH,24.8107515,93.9386097
"Gandhi Shilp Bazar National, States, District",GSB (District) at Jhansi UH,08/09/2025 to 14/09/2025,2025-06-30 23:45:00,https://indian.handicrafts.gov.in/en/events/view/NDQ4,2025-06-30,23:45:00,2025-09-08,2025-09-14,Jhansi UH,25.4487699,78.5697526
"Gandhi Shilp Bazar National, States, District",GSB (District) at Vijaywada,08/09/2025 to 14/09/2025,2025-06-30 23:45:00,https://indian.handicrafts.gov.in/en/events/view/NDU0,2025-06-30,23:45:00,2025-09-08,2025-09-14,Vijaywada,16.5061743,80.6480153
"Gandhi Shilp Bazar National, States, District",GSB (District) at Jorhat,21/09/2025 to 27/09/2025,2025-06-30 23:45:00,https://indian.handicrafts.gov.in/en/events/view/NDI2,2025-06-30,23:45:00,2025-09-21,2025-09-27,Jorhat,26.7509207,94.2036696
"Gandhi Shilp Bazar National, States, District",GSB (District) at Agartala UH,02/09/2025 to 08/09/2025,2025-06-30 23:45:00,https://indian.handicrafts.gov.in/en/events/view/NDYz,2025-06-30,23:45:00,2025-09-02,2025-09-08,Agartala UH,23.831457,91.2867777
"Gandhi Shilp Bazar National, States, District",GSB (State) at Madurai,05/09/2025 to 14/09/2025,2025-06-30 23:45:00,https://indian.handicrafts.gov.in/en/events/view/NDM2,2025-06-30,23:45:00,2025-09-05,2025-09-14,Madurai,9.9252007,78.1197754
"Gandhi Shilp Bazar National, States, District",GSB (District) at Shantiniketan UH,01/09/2025 to 07/09/2025,2025-06-30 23:45:00,https://indian.handicrafts.gov.in/en/events/view/NDM1,2025-06-30,23:45:00,2025-09-01,2025-09-07,Shantiniketan UH,23.6776471,87.6852323
"Gandhi Shilp Bazar National, States, District",GSB (District) at Srinagar UH,20/08/2025 to 26/08/2025,2025-06-30 23:45:00,https://indian.handicrafts.gov.in/en/events/view/NDI4,2025-06-30,23:45:00,2025-08-20,2025-08-26,Srinagar UH,34.0836708,74.7972825
"Gandhi Shilp Bazar National, States, District",GSB (District) at Dimapur UH,02/09/2025 to 08/09/2025,2025-06-30 23:45:00,https://indian.handicrafts.gov.in/en/events/view/NDY1,2025-06-30,23:45:00,2025-09-02,2025-09-08,Dimapur UH,25.9091406,93.72656049999999
"Gandhi Shilp Bazar National, States, District",GSB (District) at Calicut (Kozhikode),29/08/2025 to 04/09/2025,2025-06-30 23:45:00,https://indian.handicrafts.gov.in/en/events/view/NDYx,2025-06-30,23:45:00,2025-08-29,2025-09-04,Calicut (Kozhikode),11.2488425,75.78392099999999
"Gandhi Shilp Bazar National, States, District",GSB (State) at Bhopal UH,02/09/2025 to 11/09/2025,2025-06-30 23:45:00,https://indian.handicrafts.gov.in/en/events/view/NDY0,2025-06-30,23:45:00,2025-09-02,2025-09-11,Bhopal UH,23.2599333,77.412615
"Gandhi Shilp Bazar National, States, District",GSB (District) at Coimbatore,03/09/2025 to 09/09/2025,2025-06-30 23:45:00,https://indian.handicrafts.gov.in/en/events/view/NDQ3,2025-06-30,23:45:00,2025-09-03,2025-09-09,Coimbatore,10.9973691,76.9588876
"Gandhi Shilp Bazar National, States, District",GSB (District) at Prayagraj,10/09/2025 to 16/09/2025,2025-06-30 23:45:00,https://indian.handicrafts.gov.in/en/events/view/NDUw,2025-06-30,23:45:00,2025-09-10,2025-09-16,Prayagraj,25.468338,81.85460189999999
"Gandhi Shilp Bazar National, States, District",GSB (State) at Patna,05/09/2025 to 14/09/2025,2025-06-30 23:45:00,https://indian.handicrafts.gov.in/en/events/view/NDM3,2025-06-30,23:45:00,2025-09-05,2025-09-14,Patna,25.5940947,85.1375645
"Gandhi Shilp Bazar National, States, District",GSB (District) at Kanyakumari UH,08/09/2025 to 14/09/2025,2025-06-30 23:45:00,https://indian.handicrafts.gov.in/en/events/view/NDQ5,2025-06-30,23:45:00,2025-09-08,2025-09-14,Kanyakumari UH,8.0843512,77.54950190000001
"Gandhi Shilp Bazar National, States, District",GSB (District) at Mamallapuram UH,11/08/2025 to 17/08/2025,2025-06-20 23:45:00,https://indian.handicrafts.gov.in/en/events/view/NDYw,2025-06-20,23:45:00,2025-08-11,2025-08-17,Mamallapuram UH,12.6207821,80.1944915
"Gandhi Shilp Bazar National, States, District",GSB (State) at Noida,01/08/2025 to 10/08/2025,2025-06-15 23:45:00,https://indian.handicrafts.gov.in/en/events/view/NDM0,2025-06-15,23:45:00,2025-08-01,2025-08-10,Noida,28.5355161,77.3910265
"Gandhi Shilp Bazar National, States, District",GSB (District) at Bhatinda,01/08/2025 to 07/08/2025,2025-06-15 23:45:00,https://indian.handicrafts.gov.in/en/events/view/NDI3,2025-06-15,23:45:00,2025-08-01,2025-08-07,Bhatinda,30.210994,74.9454745
"Gandhi Shilp Bazar National, States, District",GSB (District) at Leh,01/08/2025 to 07/08/2025,2025-06-15 23:45:00,https://indian.handicrafts.gov.in/en/events/view/NDQ2,2025-06-15,23:45:00,2025-08-01,2025-08-07,Leh,34.1525864,77.57705349999999
"Gandhi Shilp Bazar National, States, District",GSB (State) at Chennai,01/08/2025 to 10/08/2025,2025-06-15 23:45:00,https://indian.handicrafts.gov.in/en/events/view/NDU4,2025-06-15,23:45:00,2025-08-01,2025-08-10,Chennai,13.0843007,80.2704622
"Gandhi Shilp Bazar National, States, District",GSB (District) at Kolkata UH,01/08/2025 to 07/08/2025,2025-06-15 23:45:00,https://indian.handicrafts.gov.in/en/events/view/NDU2,2025-06-15,23:45:00,2025-08-01,2025-08-07,Kolkata UH,22.5743545,88.3628734
"Gandhi Shilp Bazar National, States, District",GSB (State) at Vadodara,05/07/2025 to 14/07/2025,2025-06-10 23:45:00,https://indian.handicrafts.gov.in/en/events/view/NTQ1,2025-06-10,23:45:00,2025-07-05,2025-07-14,Vadodara,22.3000395,73.2064994
"Gandhi Shilp Bazar National, States, District",GSB (District) at Dimapur UH,07/07/2025 to 13/07/2025,2025-06-01 23:45:00,https://indian.handicrafts.gov.in/en/events/view/NDIy,2025-06-01,23:45:00,2025-07-07,2025-07-13,Dimapur UH,25.9091406,93.72656049999999
"Gandhi Shilp Bazar National, States, District",GSB (District) at Dimapur UH,07/07/2025 to 13/07/2025,2025-06-01 23:45:00,https://indian.handicrafts.gov.in/en/events/view/NDIy,2025-06-01,23:45:00,2025-07-07,2025-07-13,Dimapur UH,25.9091406,93.72656049999999
"Gandhi Shilp Bazar National, States, District",GSB (District) at Indore UH,01/07/2025 to 07/07/2025,2025-05-31 23:45:00,https://indian.handicrafts.gov.in/en/events/view/NDQz,2025-05-31,23:45:00,2025-07-01,2025-07-07,Indore UH,22.7195687,75.8577258
"Gandhi Shilp Bazar National, States, District",GSB (District) at Haridwar,01/07/2025 to 07/07/2025,2025-05-31 23:45:00,https://indian.handicrafts.gov.in/en/events/view/NDQ0,2025-05-31,23:45:00,2025-07-01,2025-07-07,Haridwar,29.9456906,78.16424780000001
"Gandhi Shilp Bazar National, States, District",GSB (District) at Hubli,17/07/2025 to 23/07/2025,2025-05-31 23:45:00,https://indian.handicrafts.gov.in/en/events/view/NDUz,2025-05-31,23:45:00,2025-07-17,2025-07-23,Hubli,15.3647083,75.1239547
"Gandhi Shilp Bazar National, States, District",GSB (District) at Port Blair,17/07/2025 to 23/07/2025,2025-05-31 23:45:00,https://indian.handicrafts.gov.in/en/events/view/NDQ1,2025-05-31,23:45:00,2025-07-17,2025-07-23,Port Blair,11.6233774,92.7264828
"Gandhi Shilp Bazar National, States, District",GSB (State) at Dehradun,01/07/2025 to 10/07/2025,2025-05-31 23:45:00,https://indian.handicrafts.gov.in/en/events/view/NDMz,2025-05-31,23:45:00,2025-07-01,2025-07-10,Dehradun,30.3164945,78.03219179999999
"Gandhi Shilp Bazar National, States, District",GSB (District) at Aizwal,01/07/2025 to 07/07/2025,2025-05-30 23:45:00,https://indian.handicrafts.gov.in/en/events/view/NDI1,2025-05-30,23:45:00,2025-07-01,2025-07-07,Aizwal,23.7307175,92.71731059999999
Dilli Haat,Dilli Haat - GI Crafts - Non Textiles based Crafts,01/06/2025 to 15/06/2025,2025-05-11 23:45:00,https://indian.handicrafts.gov.in/en/events/view/NDU5,2025-05-11,23:45:00,2025-06-01,2025-06-15,Delhi,28.7040592,77.10249019999999
Dilli Haat,DILLI HAAT - SC Artisans - Non Textiles Based Crafts,16/05/2025 to 31/05/2025,2025-05-04 23:45:00,https://indian.handicrafts.gov.in/en/events/view/NDU3,2025-05-04,23:45:00,2025-05-16,2025-05-31,Delhi,28.7040592,77.10249019999999
"Gandhi Shilp Bazar National, States, District",GSB (National) at Guwahati,01/06/2025 to 10/06/2025,2025-05-04 23:45:00,https://indian.handicrafts.gov.in/en/events/view/NDIx,2025-05-04,23:45:00,2025-06-01,2025-06-10,Guwahati,26.1157917,91.7085933
"Gandhi Shilp Bazar National, States, District",GSB (District) at Hazaribagh UH,14/05/2025 to 20/05/2025,2025-04-30 23:45:00,https://indian.handicrafts.gov.in/en/events/view/NDMy,2025-04-30,23:45:00,2025-05-14,2025-05-20,Hazaribagh UH,23.9924669,85.3636758
"Gandhi Shilp Bazar National, States, District",GSB (State) at Indore,06/05/2025 to 15/05/2025,2025-04-27 23:45:00,https://indian.handicrafts.gov.in/en/events/view/NDMw,2025-04-27,23:45:00,2025-05-06,2025-05-15,Indore,22.7195687,75.8577258
Dilli Haat,Dilli Haat - Non textile-based Crafts from PAN India except Northern Region,01/05/2025 to 15/05/2025,2025-04-14 23:45:00,https://indian.handicrafts.gov.in/en/events/view/NDIw,2025-04-14,23:45:00,2025-05-01,2025-05-15,Delhi,28.7040592,77.10249019999999
Dilli Haat,Dilli Haat - Non textile-based Crafts from Northern Region,16/04/2025 to 30/04/2025,2025-04-08 23:45:00,https://indian.handicrafts.gov.in/en/events/view/NDE5,2025-04-08,23:45:00,2025-04-16,2025-04-30,Delhi,28.7040592,77.10249019999999
"Gandhi Shilp Bazar National, States, District",GSB(National)-Agartala,15/03/2025 to 24/03/2025,2025-03-05 23:45:00,https://indian.handicrafts.gov.in/en/events/view/NDE4,2025-03-05,23:45:00,2025-03-15,2025-03-24,Agartala,23.831457,91.2867777
"Gandhi Shilp Bazar National, States, District",Gandhi Shilp Bazaar at JSS Mysore UH,14/03/2025 to 23/03/2025,2025-02-27 23:45:00,https://indian.handicrafts.gov.in/en/events/view/NDE0,2025-02-27,23:45:00,2025-03-14,2025-03-23,JSS Mysore UH,12.2958104,76.6393805
"Gandhi Shilp Bazar National, States, District",GSB(National)-Lucknow,01/03/2025 to 10/03/2025,2025-02-20 23:45:00,https://indian.handicrafts.gov.in/en/events/view/NDE1,2025-02-20,23:45:00,2025-03-01,2025-03-10,Lucknow,26.8466937,80.94616599999999
"Gandhi Shilp Bazar National, States, District",GSB(National) at Patna,27/02/2025 to 08/03/2025,2025-02-20 23:45:00,https://indian.handicrafts.gov.in/en/events/view/NDE2,2025-02-20,23:45:00,2025-02-27,2025-03-08,Patna,25.5940947,85.1375645
"Gandhi Shilp Bazar National, States, District",GSB(District)-Srinagar UH,07/03/2025 to 13/03/2025,2025-02-20 23:45:00,https://indian.handicrafts.gov.in/en/events/view/NDE3,2025-02-20,23:45:00,2025-03-07,2025-03-13,Srinagar UH,34.0836708,74.7972825
"Gandhi Shilp Bazar National, States, District",GSB(District)-Haridwar,17/03/2025 to 23/03/2025,2025-02-15 23:45:00,https://indian.handicrafts.gov.in/en/events/view/Mzk0,2025-02-15,23:45:00,2025-03-17,2025-03-23,Haridwar,29.9456906,78.16424780000001
"Gandhi Shilp Bazar National, States, District",Gandhi shilp Bazaar at DHS Varanasi,27/02/2025 to 08/03/2025,2025-02-15 23:45:00,https://indian.handicrafts.gov.in/en/events/view/NDEz,2025-02-15,23:45:00,2025-02-27,2025-03-08,DHS Varanasi,25.3176452,82.9739144
"Gandhi Shilp Bazar National, States, District",GSB (District)-Varanasi UH,03/03/2025 to 09/03/2025,2025-02-05 23:45:00,https://indian.handicrafts.gov.in/en/events/view/NDEx,2025-02-05,23:45:00,2025-03-03,2025-03-09,Varanasi UH,25.3176452,82.9739144
"Gandhi Shilp Bazar National, States, District",GSB(State)- Mysuru UH,14/02/2025 to 23/02/2025,2025-02-02 23:45:00,https://indian.handicrafts.gov.in/en/events/view/NDEy,2025-02-02,23:45:00,2025-02-14,2025-02-23,Mysuru UH,12.2958104,76.6393805
"Gandhi Shilp Bazar National, States, District",GSB(District)-Varanasi UH,23/02/2025 to 01/03/2025,2025-01-20 23:45:00,https://indian.handicrafts.gov.in/en/events/view/MzI5,2025-01-20,23:45:00,2025-02-23,2025-03-01,Varanasi UH,25.3176452,82.9739144
"Gandhi Shilp Bazar National, States, District",GSB(District)-Bhuj UH,21/02/2025 to 27/02/2025,2025-01-20 23:45:00,https://indian.handicrafts.gov.in/en/events/view/Mzgx,2025-01-20,23:45:00,2025-02-21,2025-02-27,Bhuj UH,23.2419997,69.6669324
"Gandhi Shilp Bazar National, States, District",GSB(National)-Chennai,14/02/2025 to 23/02/2025,2025-01-15 23:45:00,https://indian.handicrafts.gov.in/en/events/view/Mzc3,2025-01-15,23:45:00,2025-02-14,2025-02-23,Chennai,13.0843007,80.2704622
"Gandhi Shilp Bazar National, States, District",GSB(State)-Vadodara,14/02/2025 to 23/02/2025,2025-01-15 23:45:00,https://indian.handicrafts.gov.in/en/events/view/Mzgw,2025-01-15,23:45:00,2025-02-14,2025-02-23,Vadodara,22.3000395,73.2064994
"Gandhi Shilp Bazar National, States, District",GSB(State)-Kurukshetra,31/01/2025 to 09/02/2025,2025-01-15 22:45:00,https://indian.handicrafts.gov.in/en/events/view/NDEw,2025-01-15,22:45:00,2025-01-31,2025-02-09,Kurukshetra,29.9695121,76.878282
"Gandhi Shilp Bazar National, States, District",GSB(State)-Shillong,11/02/2025 to 20/02/2025,2025-01-10 23:45:00,https://indian.handicrafts.gov.in/en/events/view/NDA0,2025-01-10,23:45:00,2025-02-11,2025-02-20,Shillong,25.5787726,91.8932535
"Gandhi Shilp Bazar National, States, District",Gandhi Shilp Bazaar at Ujjain,31/01/2025 to 09/02/2025,2025-01-10 23:45:00,https://indian.handicrafts.gov.in/en/events/view/NDA4,2025-01-10,23:45:00,2025-01-31,2025-02-09,Ujjain,23.1764665,75.7885163
"Gandhi Shilp Bazar National, States, District",Surajkund Craft Mela 2025,07/02/2025 to 23/02/2025,2025-01-07 23:45:00,https://indian.handicrafts.gov.in/en/events/view/NDA5,2025-01-07,23:45:00,2025-02-07,2025-02-23,,18.7874192,100.7762883
"Gandhi Shilp Bazar National, States, District",GSB(District)-Mamallapuram UH,08/02/2025 to 14/02/2025,2025-01-05 23:45:00,https://indian.handicrafts.gov.in/en/events/view/Mzc5,2025-01-05,23:45:00,2025-02-08,2025-02-14,Mamallapuram UH,12.6207821,80.1944915
"Gandhi Shilp Bazar National, States, District",Gandhi Shilp Bazaar at Indore,10/01/2025 to 19/01/2025,2024-12-26 23:45:00,https://indian.handicrafts.gov.in/en/events/view/NDA3,2024-12-26,23:45:00,2025-01-10,2025-01-19,Indore,22.7195687,75.8577258
"Gandhi Shilp Bazar National, States, District",GSB(District)-Agra,28/01/2025 to 03/02/2025,2024-12-25 23:45:00,https://indian.handicrafts.gov.in/en/events/view/Mzk4,2024-12-25,23:45:00,2025-01-28,2025-02-03,Agra,27.1766701,78.00807449999999
"Gandhi Shilp Bazar National, States, District",GSB(State)-Pudducherry,10/01/2025 to 19/01/2025,2024-12-23 23:45:00,https://indian.handicrafts.gov.in/en/events/view/NDA1,2024-12-23,23:45:00,2025-01-10,2025-01-19,Pudducherry,11.9415915,79.8083133
"Gandhi Shilp Bazar National, States, District",GSB(National)-Shilparamam (Madhapur),08/01/2025 to 17/01/2025,2024-12-15 23:45:00,https://indian.handicrafts.gov.in/en/events/view/NDA2,2024-12-15,23:45:00,2025-01-08,2025-01-17,Shilparamam (Madhapur),17.452573,78.3783065
"Gandhi Shilp Bazar National, States, District",GSB(District)-Kakinada UH,10/01/2025 to 16/01/2025,2024-12-10 23:45:00,https://indian.handicrafts.gov.in/en/events/view/Mzc4,2024-12-10,23:45:00,2025-01-10,2025-01-16,Kakinada UH,16.9890648,82.2474648
"Gandhi Shilp Bazar National, States, District",GSB(State)-Chennai,11/01/2025 to 20/01/2025,2024-12-10 23:45:00,https://indian.handicrafts.gov.in/en/events/view/Mzgy,2024-12-10,23:45:00,2025-01-11,2025-01-20,Chennai,13.0843007,80.2704622
"Gandhi Shilp Bazar National, States, District",GSB(District)-Jhansi UH,11/01/2025 to 17/01/2025,2024-12-10 23:45:00,https://indian.handicrafts.gov.in/en/events/view/Mzg4,2024-12-10,23:45:00,2025-01-11,2025-01-17,Jhansi UH,25.4487699,78.5697526
"Gandhi Shilp Bazar National, States, District",GSB(National)-Prayagraj (Kumbh Mela),10/01/2025 to 19/01/2025,2024-12-10 23:45:00,https://indian.handicrafts.gov.in/en/events/view/Mzkz,2024-12-10,23:45:00,2025-01-10,2025-01-19,Prayagraj (Kumbh Mela),25.468338,81.85460189999999
"Gandhi Shilp Bazar National, States, District",GSB(District)-Kanyakumari UH,06/01/2025 to 12/01/2025,2024-12-05 23:45:00,https://indian.handicrafts.gov.in/en/events/view/Mzc2,2024-12-05,23:45:00,2025-01-06,2025-01-12,Kanyakumari UH,8.0843512,77.54950190000001
"Gandhi Shilp Bazar National, States, District",GSB at Lucknow,13/12/2024 to 22/12/2024,2024-12-04 23:45:00,https://indian.handicrafts.gov.in/en/events/view/NDAy,2024-12-04,23:45:00,2024-12-13,2024-12-22,Lucknow,26.8466937,80.94616599999999
"Gandhi Shilp Bazar National, States, District",GSB(State)-Nadia,03/01/2025 to 12/01/2025,2024-11-30 23:45:00,https://indian.handicrafts.gov.in/en/events/view/Mzc1,2024-11-30,23:45:00,2025-01-03,2025-01-12,Nadia,23.4709656,88.55653099999999
"Gandhi Shilp Bazar National, States, District",GSB(District)-Konark UH,27/12/2024 to 02/01/2025,2024-11-25 23:45:00,https://indian.handicrafts.gov.in/en/events/view/Mjk2,2024-11-25,23:45:00,2024-12-27,2025-01-02,Konark UH,19.8920686,86.091184
"Gandhi Shilp Bazar National, States, District",GSB(District)-Mangaluru UH,24/12/2024 to 30/12/2024,2024-11-25 23:45:00,https://indian.handicrafts.gov.in/en/events/view/MzM4,2024-11-25,23:45:00,2024-12-24,2024-12-30,Mangaluru UH,12.8854777,74.8388112
"Gandhi Shilp Bazar National, States, District",GSB(District)-Puri UH,25/12/2024 to 31/12/2024,2024-11-25 23:45:00,https://indian.handicrafts.gov.in/en/events/view/MzU2,2024-11-25,23:45:00,2024-12-25,2024-12-31,Puri UH,19.8134554,85.8312359
"Gandhi Shilp Bazar National, States, District",GSB(State)-Dehradun,27/12/2024 to 05/01/2025,2024-11-25 23:45:00,https://indian.handicrafts.gov.in/en/events/view/MzY1,2024-11-25,23:45:00,2024-12-27,2025-01-05,Dehradun,30.3164945,78.03219179999999
"Gandhi Shilp Bazar National, States, District",GSB(District)-Imphal,23/12/2024 to 29/12/2024,2024-11-25 23:45:00,https://indian.handicrafts.gov.in/en/events/view/Mzg3,2024-11-25,23:45:00,2024-12-23,2024-12-29,Imphal,24.8107515,93.9386097
"Gandhi Shilp Bazar National, States, District",GSB(District)-Shantiniketan UH,24/12/2024 to 30/12/2024,2024-11-20 23:45:00,https://indian.handicrafts.gov.in/en/events/view/MzAx,2024-11-20,23:45:00,2024-12-24,2024-12-30,Shantiniketan UH,23.6776471,87.6852323
"Gandhi Shilp Bazar National, States, District",GSB(District)-Gaya,20/12/2024 to 26/12/2024,2024-11-20 23:45:00,https://indian.handicrafts.gov.in/en/events/view/MzI3,2024-11-20,23:45:00,2024-12-20,2024-12-26,Gaya,24.7913957,85.0002336
"Gandhi Shilp Bazar National, States, District",GSB(District)-Guntur UH,20/12/2024 to 26/12/2024,2024-11-20 23:45:00,https://indian.handicrafts.gov.in/en/events/view/MzM2,2024-11-20,23:45:00,2024-12-20,2024-12-26,Guntur UH,16.3066525,80.4365402
"Gandhi Shilp Bazar National, States, District",GSB(District)-Kanyakumari UH,21/12/2024 to 27/12/2024,2024-11-20 23:45:00,https://indian.handicrafts.gov.in/en/events/view/MzM3,2024-11-20,23:45:00,2024-12-21,2024-12-27,Kanyakumari UH,8.0843512,77.54950190000001
"Gandhi Shilp Bazar National, States, District",GSB(State)-Ernakulam(cochin),22/12/2024 to 31/12/2024,2024-11-20 23:45:00,https://indian.handicrafts.gov.in/en/events/view/MzQx,2024-11-20,23:45:00,2024-12-22,2024-12-31,Ernakulam(cochin),9.9816358,76.2998842
"Gandhi Shilp Bazar National, States, District",GSB(State)-Jaipur,21/12/2024 to 30/12/2024,2024-11-20 23:45:00,https://indian.handicrafts.gov.in/en/events/view/MzY2,2024-11-20,23:45:00,2024-12-21,2024-12-30,Jaipur,26.9124336,75.7872709
"Gandhi Shilp Bazar National, States, District",GSB(District)-Bhuj UH,21/12/2024 to 27/12/2024,2024-11-20 23:45:00,https://indian.handicrafts.gov.in/en/events/view/Mzcw,2024-11-20,23:45:00,2024-12-21,2024-12-27,Bhuj UH,23.2419997,69.6669324
"Gandhi Shilp Bazar National, States, District",GSB(District)-Kolhapur,22/12/2024 to 28/12/2024,2024-11-20 23:45:00,https://indian.handicrafts.gov.in/en/events/view/Mzcx,2024-11-20,23:45:00,2024-12-22,2024-12-28,Kolhapur,16.706369,74.2481772
"Gandhi Shilp Bazar National, States, District",GSB(District)-Ajmer UH,22/12/2024 to 28/12/2024,2024-11-20 23:45:00,https://indian.handicrafts.gov.in/en/events/view/Mzgz,2024-11-20,23:45:00,2024-12-22,2024-12-28,Ajmer UH,26.4498954,74.6399163
"Gandhi Shilp Bazar National, States, District",GSB(District)-Indore UH,20/12/2024 to 26/12/2024,2024-11-20 23:45:00,https://indian.handicrafts.gov.in/en/events/view/Mzg1,2024-11-20,23:45:00,2024-12-20,2024-12-26,Indore UH,22.7195687,75.8577258
"Gandhi Shilp Bazar National, States, District",GSB(State)-Udaipur,22/12/2024 to 31/12/2024,2024-11-20 23:45:00,https://indian.handicrafts.gov.in/en/events/view/Mzk1,2024-11-20,23:45:00,2024-12-22,2024-12-31,Udaipur,24.585445,73.712479
"Gandhi Shilp Bazar National, States, District",Gandhi Shilp Bazar_testing,20/11/2024 to 30/11/2024,2024-11-20 14:45:00,https://indian.handicrafts.gov.in/en/events/view/NDAz,2024-11-20,14:45:00,2024-11-20,2024-11-30,,18.7874192,100.7762883
"Gandhi Shilp Bazar National, States, District",GSB(District)-Bhatinda,15/12/2024 to 21/12/2024,2024-11-15 23:45:00,https://indian.handicrafts.gov.in/en/events/view/MzU1,2024-11-15,23:45:00,2024-12-15,2024-12-21,Bhatinda,30.210994,74.9454745
"Gandhi Shilp Bazar National, States, District",GSB(State)-Ranchi,13/12/2024 to 22/12/2024,2024-11-15 23:45:00,https://indian.handicrafts.gov.in/en/events/view/MzY3,2024-11-15,23:45:00,2024-12-13,2024-12-22,Ranchi,23.3440997,85.309562
"Gandhi Shilp Bazar National, States, District",test_2,14/11/2024 to 15/11/2024,2024-11-14 15:15:00,https://indian.handicrafts.gov.in/en/events/view/NDAx,2024-11-14,15:15:00,2024-11-14,2024-11-15,,18.7874192,100.7762883
"Gandhi Shilp Bazar National, States, District",GSB (National)- Guwahati,10/12/2024 to 19/12/2024,2024-11-10 23:45:00,https://indian.handicrafts.gov.in/en/events/view/Mjc3,2024-11-10,23:45:00,2024-12-10,2024-12-19,Guwahati,26.1157917,91.7085933
"Gandhi Shilp Bazar National, States, District",GSB(District)-Konark UH,18/12/2024 to 24/12/2024,2024-11-10 23:45:00,https://indian.handicrafts.gov.in/en/events/view/Mjk1,2024-11-10,23:45:00,2024-12-18,2024-12-24,Konark UH,19.8920686,86.091184
"Gandhi Shilp Bazar National, States, District",GSB(State)-Madurai,13/12/2024 to 22/12/2024,2024-11-10 23:45:00,https://indian.handicrafts.gov.in/en/events/view/MzM0,2024-11-10,23:45:00,2024-12-13,2024-12-22,Madurai,9.9252007,78.1197754
"Gandhi Shilp Bazar National, States, District",GSB(District)-Mon,11/12/2024 to 17/12/2024,2024-11-10 23:45:00,https://indian.handicrafts.gov.in/en/events/view/MzUy,2024-11-10,23:45:00,2024-12-11,2024-12-17,Mon,41.9937012,21.4238337
"Gandhi Shilp Bazar National, States, District",GSB(District)-Ayodhya UH,10/12/2024 to 16/12/2024,2024-11-10 23:45:00,https://indian.handicrafts.gov.in/en/events/view/Mzky,2024-11-10,23:45:00,2024-12-10,2024-12-16,Ayodhya UH,26.7921605,82.1997954
"Gandhi Shilp Bazar National, States, District",GSB(District)-Bhubaneshwar UH,08/12/2024 to 14/12/2024,2024-11-05 23:45:00,https://indian.handicrafts.gov.in/en/events/view/MzI2,2024-11-05,23:45:00,2024-12-08,2024-12-14,Bhubaneshwar UH,20.2959847,85.8246101
"Gandhi Shilp Bazar National, States, District",GSB(District)-Tirupati UH,06/12/2024 to 12/12/2024,2024-11-05 23:45:00,https://indian.handicrafts.gov.in/en/events/view/MzM1,2024-11-05,23:45:00,2024-12-06,2024-12-12,Tirupati UH,13.6287557,79.4191795
"Gandhi Shilp Bazar National, States, District",GSB(District)-Madgaon,05/12/2024 to 11/12/2024,2024-11-05 23:45:00,https://indian.handicrafts.gov.in/en/events/view/Mzcy,2024-11-05,23:45:00,2024-12-05,2024-12-11,Madgaon,15.2859239,73.97869140000002
Hiring of Stall,test_2,04/11/2024 to 15/11/2024,2024-11-04 15:15:00,https://indian.handicrafts.gov.in/en/events/view/NDAw,2024-11-04,15:15:00,2024-11-04,2024-11-15,,18.7874192,100.7762883
"Gandhi Shilp Bazar National, States, District",Demo,04/11/2024 to 15/11/2024,2024-11-04 14:30:00,https://indian.handicrafts.gov.in/en/events/view/Mzk5,2024-11-04,14:30:00,2024-11-04,2024-11-15,,18.7874192,100.7762883
"Gandhi Shilp Bazar National, States, District",GSB(District)-Durgapur UH,03/12/2024 to 09/12/2024,2024-10-31 23:45:00,https://indian.handicrafts.gov.in/en/events/view/Mjk4,2024-10-31,23:45:00,2024-12-03,2024-12-09,Durgapur UH,23.5204443,87.3119227
"Gandhi Shilp Bazar National, States, District",GSB(District)-Kohima,01/12/2024 to 07/12/2024,2024-10-31 23:45:00,https://indian.handicrafts.gov.in/en/events/view/MzA2,2024-10-31,23:45:00,2024-12-01,2024-12-07,Kohima,25.6742421,94.1085937
"Gandhi Shilp Bazar National, States, District",GSB(District)-Puri UH,01/12/2024 to 07/12/2024,2024-10-31 23:45:00,https://indian.handicrafts.gov.in/en/events/view/MzI1,2024-10-31,23:45:00,2024-12-01,2024-12-07,Puri UH,19.8134554,85.8312359
"Gandhi Shilp Bazar National, States, District",GSB(District)-Jammu UH,01/12/2024 to 07/12/2024,2024-10-31 23:45:00,https://indian.handicrafts.gov.in/en/events/view/MzMy,2024-10-31,23:45:00,2024-12-01,2024-12-07,Jammu UH,32.7266016,74.8570259
"Gandhi Shilp Bazar National, States, District",GSB(State)-Panji,29/11/2024 to 08/12/2024,2024-10-31 23:45:00,https://indian.handicrafts.gov.in/en/events/view/MzY4,2024-10-31,23:45:00,2024-11-29,2024-12-08,Panji,32.6985799,117.06952
"Gandhi Shilp Bazar National, States, District",GSB(District)-Gwalior,01/12/2024 to 07/12/2024,2024-10-31 23:45:00,https://indian.handicrafts.gov.in/en/events/view/MzY5,2024-10-31,23:45:00,2024-12-01,2024-12-07,Gwalior,26.2124007,78.1772053
"Gandhi Shilp Bazar National, States, District",GSB(District)-Ahmedabad UH,27/11/2024 to 03/12/2024,2024-10-30 23:45:00,https://indian.handicrafts.gov.in/en/events/view/MzY0,2024-10-30,23:45:00,2024-11-27,2024-12-03,Ahmedabad UH,23.022505,72.5713621
Craft Demonstration cum Awareness Program (CDAP),test_2,28/09/2024 to 30/09/2024,2024-10-28 15:15:00,https://indian.handicrafts.gov.in/en/events/view/Mzk3,2024-10-28,15:15:00,2024-09-28,2024-09-30,,18.7874192,100.7762883
"Gandhi Shilp Bazar National, States, District",GSB(District)-Ajmer UH,24/11/2024 to 30/11/2024,2024-10-25 23:45:00,https://indian.handicrafts.gov.in/en/events/view/MzMx,2024-10-25,23:45:00,2024-11-24,2024-11-30,Ajmer UH,26.4498954,74.6399163
"Gandhi Shilp Bazar National, States, District",GSB(District)-Imphal UH,26/11/2024 to 02/12/2024,2024-10-25 23:45:00,https://indian.handicrafts.gov.in/en/events/view/MzU3,2024-10-25,23:45:00,2024-11-26,2024-12-02,Imphal UH,24.8107515,93.9386097
"Gandhi Shilp Bazar National, States, District",GSB(State)-Bhilai,22/11/2024 to 01/12/2024,2024-10-25 23:45:00,https://indian.handicrafts.gov.in/en/events/view/MzYz,2024-10-25,23:45:00,2024-11-22,2024-12-01,Bhilai,21.1938475,81.3509416
"Gandhi Shilp Bazar National, States, District",test_2,24/09/2024 to 30/09/2024,2024-10-25 15:00:00,https://indian.handicrafts.gov.in/en/events/view/Mzk2,2024-10-25,15:00:00,2024-09-24,2024-09-30,,18.7874192,100.7762883
Dilli Haat,Dilli Haat (Master Creation-2),01/12/2024 to 15/12/2024,2024-10-23 23:45:00,https://indian.handicrafts.gov.in/en/events/view/MjY2,2024-10-23,23:45:00,2024-12-01,2024-12-15,Delhi,28.7040592,77.10249019999999
Fashion Show,DEMOLive,20/09/2024 to 30/09/2024,2024-10-21 17:30:00,https://indian.handicrafts.gov.in/en/events/view/Mzkx,2024-10-21,17:30:00,2024-09-20,2024-09-30,,18.7874192,100.7762883
"Gandhi Shilp Bazar National, States, District",GSB(District)-Ahmedabad UH,20/11/2024 to 26/11/2024,2024-10-20 23:45:00,https://indian.handicrafts.gov.in/en/events/view/MzEz,2024-10-20,23:45:00,2024-11-20,2024-11-26,Ahmedabad UH,23.022505,72.5713621
"Gandhi Shilp Bazar National, States, District",GSB(State)-Bokaro,22/11/2024 to 01/12/2024,2024-10-20 23:45:00,https://indian.handicrafts.gov.in/en/events/view/MzI0,2024-10-20,23:45:00,2024-11-22,2024-12-01,Bokaro,23.6692956,86.15111200000001
"Gandhi Shilp Bazar National, States, District",GSB(District)-Gandhinagar,21/11/2024 to 27/11/2024,2024-10-20 23:45:00,https://indian.handicrafts.gov.in/en/events/view/MzYy,2024-10-20,23:45:00,2024-11-21,2024-11-27,Gandhinagar,23.2156354,72.63694149999999
"Gandhi Shilp Bazar National, States, District","Toshali Craft Mela 2024 (GSB National), Bhubaneswar",01/12/2024 to 12/12/2024,2024-10-20 23:45:00,https://indian.handicrafts.gov.in/en/events/view/Mzg2,2024-10-20,23:45:00,2024-12-01,2024-12-12,,18.7874192,100.7762883
Dilli Haat,Dilli Haat,16/11/2024 to 30/11/2024,2024-10-15 23:45:00,https://indian.handicrafts.gov.in/en/events/view/MjY1,2024-10-15,23:45:00,2024-11-16,2024-11-30,Delhi,28.7040592,77.10249019999999
"Gandhi Shilp Bazar National, States, District",GSB(District)-Bhuvaneshwar UH,15/11/2024 to 21/11/2024,2024-10-15 23:45:00,https://indian.handicrafts.gov.in/en/events/view/MzIz,2024-10-15,23:45:00,2024-11-15,2024-11-21,Bhuvaneshwar UH,29.7204627,-95.34293190000001
"Gandhi Shilp Bazar National, States, District",GSB(District)-Navi Mumbai UH,15/11/2024 to 21/11/2024,2024-10-15 23:45:00,https://indian.handicrafts.gov.in/en/events/view/MzYx,2024-10-15,23:45:00,2024-11-15,2024-11-21,Navi Mumbai UH,19.0330488,73.0296625
"Gandhi Shilp Bazar National, States, District",GSB(District)-Imphal UH,12/11/2024 to 18/11/2024,2024-10-15 23:45:00,https://indian.handicrafts.gov.in/en/events/view/Mzcz,2024-10-15,23:45:00,2024-11-12,2024-11-18,Imphal UH,24.8107515,93.9386097
"Gandhi Shilp Bazar National, States, District",GSB(District)-Durgapur UH,19/11/2024 to 25/11/2024,2024-10-10 23:45:00,https://indian.handicrafts.gov.in/en/events/view/Mjk3,2024-10-10,23:45:00,2024-11-19,2024-11-25,Durgapur UH,23.5204443,87.3119227
"Gandhi Shilp Bazar National, States, District",GSB(State)-Nashik,08/11/2024 to 17/11/2024,2024-10-10 23:45:00,https://indian.handicrafts.gov.in/en/events/view/MzUw,2024-10-10,23:45:00,2024-11-08,2024-11-17,Nashik,19.9993217,73.79001880000001
"Gandhi Shilp Bazar National, States, District",GSB(District)-Bhopal UH,11/11/2024 to 17/11/2024,2024-10-10 23:45:00,https://indian.handicrafts.gov.in/en/events/view/MzYw,2024-10-10,23:45:00,2024-11-11,2024-11-17,Bhopal UH,23.2599333,77.412615
"Gandhi Shilp Bazar National, States, District",GSB- Bhopal (STATE),21/10/2024 to 30/10/2024,2024-10-06 16:15:00,https://indian.handicrafts.gov.in/en/events/view/Mzg0,2024-10-06,16:15:00,2024-10-21,2024-10-30,Bhopal (STATE),23.2599333,77.412615
"Gandhi Shilp Bazar National, States, District",GSB(District)-Jodhpur UH,04/11/2024 to 10/11/2024,2024-10-05 23:45:00,https://indian.handicrafts.gov.in/en/events/view/MzIy,2024-10-05,23:45:00,2024-11-04,2024-11-10,Jodhpur UH,26.2389469,73.02430939999999
"Gandhi Shilp Bazar National, States, District",GSB(National)-Varanasi,09/11/2024 to 18/11/2024,2024-10-05 23:45:00,https://indian.handicrafts.gov.in/en/events/view/MzI4,2024-10-05,23:45:00,2024-11-09,2024-11-18,Varanasi,25.3176452,82.9739144
"Gandhi Shilp Bazar National, States, District",GSB(State)-Chandigarh,05/11/2024 to 14/11/2024,2024-10-05 23:45:00,https://indian.handicrafts.gov.in/en/events/view/MzMw,2024-10-05,23:45:00,2024-11-05,2024-11-14,Chandigarh,30.7333148,76.7794179
"Gandhi Shilp Bazar National, States, District",GSB(District)-Kakinada UH,08/11/2024 to 14/11/2024,2024-10-05 23:45:00,https://indian.handicrafts.gov.in/en/events/view/MzMz,2024-10-05,23:45:00,2024-11-08,2024-11-14,Kakinada UH,16.9890648,82.2474648
"Gandhi Shilp Bazar National, States, District",GSB(District)-Agartala UH,01/11/2024 to 07/11/2024,2024-09-30 23:45:00,https://indian.handicrafts.gov.in/en/events/view/MzA1,2024-09-30,23:45:00,2024-11-01,2024-11-07,Agartala UH,23.831457,91.2867777
"Gandhi Shilp Bazar National, States, District",GSB(District)-Mamallapuram UH,04/11/2024 to 10/11/2024,2024-09-30 23:45:00,https://indian.handicrafts.gov.in/en/events/view/MzA5,2024-09-30,23:45:00,2024-11-04,2024-11-10,Mamallapuram UH,12.6207821,80.1944915
"Gandhi Shilp Bazar National, States, District",GSB(State)-Thiruvanathapuram (Trivandrum),28/10/2024 to 06/11/2024,2024-09-30 23:45:00,https://indian.handicrafts.gov.in/en/events/view/MzU4,2024-09-30,23:45:00,2024-10-28,2024-11-06,Thiruvanathapuram (Trivandrum),8.5241391,76.9366376
Dilli Haat,Dilli Haat (SAMARTH Training artisans),01/11/2024 to 15/11/2024,2024-09-29 17:00:00,https://indian.handicrafts.gov.in/en/events/view/MjY0,2024-09-29,17:00:00,2024-11-01,2024-11-15,Delhi,28.7040592,77.10249019999999
"Gandhi Shilp Bazar National, States, District",GSB(District)-Hazaribagh UH,21/10/2024 to 27/10/2024,2024-09-20 23:45:00,https://indian.handicrafts.gov.in/en/events/view/MzE5,2024-09-20,23:45:00,2024-10-21,2024-10-27,Hazaribagh UH,23.9924669,85.3636758
"Gandhi Shilp Bazar National, States, District",GSB(State)-Ujjain,18/10/2024 to 27/10/2024,2024-09-20 23:45:00,https://indian.handicrafts.gov.in/en/events/view/MzQ0,2024-09-20,23:45:00,2024-10-18,2024-10-27,Ujjain,23.1764665,75.7885163
"Gandhi Shilp Bazar National, States, District",GSB(District0-Raipur UH,20/10/2024 to 26/10/2024,2024-09-20 23:45:00,https://indian.handicrafts.gov.in/en/events/view/MzQ1,2024-09-20,23:45:00,2024-10-20,2024-10-26,Raipur UH,21.2513844,81.62964130000002
"Gandhi Shilp Bazar National, States, District",GSB(District)-Mathura,23/10/2024 to 29/10/2024,2024-09-20 23:45:00,https://indian.handicrafts.gov.in/en/events/view/MzU0,2024-09-20,23:45:00,2024-10-23,2024-10-29,Mathura,27.4924134,77.673673
"Gandhi Shilp Bazar National, States, District",GSB(State)-Nagpur,18/10/2024 to 27/10/2024,2024-09-20 23:45:00,https://indian.handicrafts.gov.in/en/events/view/MzU5,2024-09-20,23:45:00,2024-10-18,2024-10-27,Nagpur,21.1458004,79.0881546
"Gandhi Shilp Bazar National, States, District","Gandhi Shilp Bazaar (A Handicrafts Expo)  at Silchar, Assam",27/09/2024 to 06/10/2024,2024-09-19 13:00:00,https://indian.handicrafts.gov.in/en/events/view/Mzc0,2024-09-19,13:00:00,2024-09-27,2024-10-06,"Silchar, Assam",24.8332708,92.7789054
"Gandhi Shilp Bazar National, States, District",GSB(District)-Shantiniketan UH,22/10/2024 to 28/10/2024,2024-09-15 23:45:00,https://indian.handicrafts.gov.in/en/events/view/MzAw,2024-09-15,23:45:00,2024-10-22,2024-10-28,Shantiniketan UH,23.6776471,87.6852323
"Gandhi Shilp Bazar National, States, District",GSB(District)-Darbhanga,18/10/2024 to 24/10/2024,2024-09-15 23:45:00,https://indian.handicrafts.gov.in/en/events/view/MzE3,2024-09-15,23:45:00,2024-10-18,2024-10-24,Darbhanga,26.1542045,85.8918454
"Gandhi Shilp Bazar National, States, District",GSB(District)-Kolkata UH,18/10/2024 to 24/10/2024,2024-09-15 23:45:00,https://indian.handicrafts.gov.in/en/events/view/MzE4,2024-09-15,23:45:00,2024-10-18,2024-10-24,Kolkata UH,22.5743545,88.3628734
"Gandhi Shilp Bazar National, States, District",GSB(District)-Jagdalpur,15/10/2024 to 21/10/2024,2024-09-15 23:45:00,https://indian.handicrafts.gov.in/en/events/view/MzQy,2024-09-15,23:45:00,2024-10-15,2024-10-21,Jagdalpur,19.0861377,82.0188426
"Gandhi Shilp Bazar National, States, District",GSB(State)-Indore,18/10/2024 to 27/10/2024,2024-09-15 23:45:00,https://indian.handicrafts.gov.in/en/events/view/MzQz,2024-09-15,23:45:00,2024-10-18,2024-10-27,Indore,22.7195687,75.8577258
"Gandhi Shilp Bazar National, States, District",GSB(National)-Ahmedabad,15/10/2024 to 24/10/2024,2024-09-15 23:45:00,https://indian.handicrafts.gov.in/en/events/view/MzQ5,2024-09-15,23:45:00,2024-10-15,2024-10-24,Ahmedabad,23.022505,72.5713621
"Gandhi Shilp Bazar National, States, District",GSB(District)-Dimapur UH,21/10/2024 to 27/10/2024,2024-09-15 12:45:00,https://indian.handicrafts.gov.in/en/events/view/MzA0,2024-09-15,12:45:00,2024-10-21,2024-10-27,Dimapur UH,25.9091406,93.72656049999999
"Gandhi Shilp Bazar National, States, District",GSB(District)-Mandi,01/10/2024 to 07/10/2024,2024-09-10 23:45:00,https://indian.handicrafts.gov.in/en/events/view/Mjg0,2024-09-10,23:45:00,2024-10-01,2024-10-07,Mandi,31.7087153,76.9320104
"Gandhi Shilp Bazar National, States, District",GSB(District)-Karnal UH,01/10/2024 to 07/10/2024,2024-09-08 23:45:00,https://indian.handicrafts.gov.in/en/events/view/MzUz,2024-09-08,23:45:00,2024-10-01,2024-10-07,Karnal UH,29.6856929,76.9904825
"Gandhi Shilp Bazar National, States, District",GSB(District)-Jammu UH,11/10/2024 to 17/10/2024,2024-09-05 23:45:00,https://indian.handicrafts.gov.in/en/events/view/MzAy,2024-09-05,23:45:00,2024-10-11,2024-10-17,Jammu UH,32.7266016,74.8570259
"Gandhi Shilp Bazar National, States, District",GSB(District)-Guntur UH,09/10/2024 to 15/10/2024,2024-09-05 23:45:00,https://indian.handicrafts.gov.in/en/events/view/MzA4,2024-09-05,23:45:00,2024-10-09,2024-10-15,Guntur UH,16.3066525,80.4365402
"Gandhi Shilp Bazar National, States, District",GSB(State)-Ludhiana,06/10/2024 to 15/10/2024,2024-09-05 23:45:00,https://indian.handicrafts.gov.in/en/events/view/MzIw,2024-09-05,23:45:00,2024-10-06,2024-10-15,Ludhiana,30.900965,75.8572758
"Gandhi Shilp Bazar National, States, District",GSB(District)-Jaipur UH,06/10/2024 to 12/10/2024,2024-09-05 23:45:00,https://indian.handicrafts.gov.in/en/events/view/MzIx,2024-09-05,23:45:00,2024-10-06,2024-10-12,Jaipur UH,26.9124336,75.7872709
"Gandhi Shilp Bazar National, States, District",GSB(State)-Jabalpur,04/10/2024 to 13/10/2024,2024-09-05 23:45:00,https://indian.handicrafts.gov.in/en/events/view/MzQ3,2024-09-05,23:45:00,2024-10-04,2024-10-13,Jabalpur,23.1685786,79.9338798
"Gandhi Shilp Bazar National, States, District",GSB(State)-Pune,04/10/2024 to 13/10/2024,2024-09-05 23:45:00,https://indian.handicrafts.gov.in/en/events/view/MzQ4,2024-09-05,23:45:00,2024-10-04,2024-10-13,Pune,18.5246091,73.8786239
"Gandhi Shilp Bazar National, States, District",GSB (District) at Muzaffarpur,28/09/2024 to 04/10/2024,2024-08-31 23:45:00,https://indian.handicrafts.gov.in/en/events/view/Mjcw,2024-08-31,23:45:00,2024-09-28,2024-10-04,Muzaffarpur,26.1196607,85.390982
"Gandhi Shilp Bazar National, States, District",GSB(District)-Agartala UH,01/10/2024 to 07/10/2024,2024-08-31 23:45:00,https://indian.handicrafts.gov.in/en/events/view/MzAz,2024-08-31,23:45:00,2024-10-01,2024-10-07,Agartala UH,23.831457,91.2867777
"Gandhi Shilp Bazar National, States, District",GSB(State)-Kanpur,01/10/2024 to 10/10/2024,2024-08-31 23:45:00,https://indian.handicrafts.gov.in/en/events/view/MzEw,2024-08-31,23:45:00,2024-10-01,2024-10-10,Kanpur,26.449923,80.3318736
"Gandhi Shilp Bazar National, States, District",GSB(District)-Kolkata UH,01/10/2024 to 07/10/2024,2024-08-31 23:45:00,https://indian.handicrafts.gov.in/en/events/view/MzEy,2024-08-31,23:45:00,2024-10-01,2024-10-07,Kolkata UH,22.5743545,88.3628734
"Gandhi Shilp Bazar National, States, District",GSB(District)-Deoghar,02/10/2024 to 08/10/2024,2024-08-31 23:45:00,https://indian.handicrafts.gov.in/en/events/view/MzE1,2024-08-31,23:45:00,2024-10-02,2024-10-08,Deoghar,24.485179,86.694785
"Gandhi Shilp Bazar National, States, District",GSB(State)-cuttack,04/10/2024 to 13/10/2024,2024-08-31 23:45:00,https://indian.handicrafts.gov.in/en/events/view/MzE2,2024-08-31,23:45:00,2024-10-04,2024-10-13,cuttack,20.462521,85.8829895
"Gandhi Shilp Bazar National, States, District",GSB(District)-Navi Mumbai UH,27/09/2024 to 03/10/2024,2024-08-30 23:45:00,https://indian.handicrafts.gov.in/en/events/view/MzQ2,2024-08-30,23:45:00,2024-09-27,2024-10-03,Navi Mumbai UH,19.0330488,73.0296625
Dilli Haat,Dilli Haat (Master Creation-1),16/10/2024 to 31/10/2024,2024-08-29 16:45:00,https://indian.handicrafts.gov.in/en/events/view/MjYz,2024-08-29,16:45:00,2024-10-16,2024-10-31,Delhi,28.7040592,77.10249019999999
"Gandhi Shilp Bazar National, States, District",GSB(State)-Itanagar,22/09/2024 to 01/10/2024,2024-08-25 23:45:00,https://indian.handicrafts.gov.in/en/events/view/Mjkx,2024-08-25,23:45:00,2024-09-22,2024-10-01,Itanagar,27.0843682,93.6053163
"Gandhi Shilp Bazar National, States, District",GSB(District)-Rajkot,26/09/2024 to 02/10/2024,2024-08-25 23:45:00,https://indian.handicrafts.gov.in/en/events/view/MzE0,2024-08-25,23:45:00,2024-09-26,2024-10-02,Rajkot,22.3038945,70.80215989999999
"Gandhi Shilp Bazar National, States, District",GSB(District)-Tirupati UH,27/09/2024 to 03/10/2024,2024-08-25 11:30:00,https://indian.handicrafts.gov.in/en/events/view/MzA3,2024-08-25,11:30:00,2024-09-27,2024-10-03,Tirupati UH,13.6287557,79.4191795
"Gandhi Shilp Bazar National, States, District",GSB(District)-Mysuru UH,20/09/2024 to 26/09/2024,2024-08-20 23:45:00,https://indian.handicrafts.gov.in/en/events/view/Mjc5,2024-08-20,23:45:00,2024-09-20,2024-09-26,Mysuru UH,12.2958104,76.6393805
"Gandhi Shilp Bazar National, States, District",GSB(District)-Aurangabad,22/09/2024 to 28/09/2024,2024-08-20 23:45:00,https://indian.handicrafts.gov.in/en/events/view/Mjgw,2024-08-20,23:45:00,2024-09-22,2024-09-28,Aurangabad,19.875754,75.3393195
"Gandhi Shilp Bazar National, States, District",GSB(State)-Prayagraj,17/09/2024 to 26/09/2024,2024-08-20 23:45:00,https://indian.handicrafts.gov.in/en/events/view/Mjg3,2024-08-20,23:45:00,2024-09-17,2024-09-26,Prayagraj,25.468338,81.85460189999999
"Gandhi Shilp Bazar National, States, District",GSB(District)-Howrah,23/09/2024 to 29/09/2024,2024-08-20 23:45:00,https://indian.handicrafts.gov.in/en/events/view/Mjk5,2024-08-20,23:45:00,2024-09-23,2024-09-29,Howrah,22.5818019,88.33621749999999
"Gandhi Shilp Bazar National, States, District",GSB(State)-Vijaywada,20/09/2024 to 29/09/2024,2024-08-20 23:45:00,https://indian.handicrafts.gov.in/en/events/view/MzQw,2024-08-20,23:45:00,2024-09-20,2024-09-29,Vijaywada,16.5061743,80.6480153
"Gandhi Shilp Bazar National, States, District",GSB(District)-Karnal UH,15/09/2024 to 21/09/2024,2024-08-15 23:45:00,https://indian.handicrafts.gov.in/en/events/view/Mjkz,2024-08-15,23:45:00,2024-09-15,2024-09-21,Karnal UH,29.6856929,76.9904825
"Gandhi Shilp Bazar National, States, District",GSB(District)-Gorakhpur,15/09/2024 to 21/09/2024,2024-08-15 23:45:00,https://indian.handicrafts.gov.in/en/events/view/MzEx,2024-08-15,23:45:00,2024-09-15,2024-09-21,Gorakhpur,26.7605545,83.3731675
"Gandhi Shilp Bazar National, States, District",GSB(District)-Rajahmundry,30/08/2024 to 05/09/2024,2024-08-15 23:45:00,https://indian.handicrafts.gov.in/en/events/view/MzM5,2024-08-15,23:45:00,2024-08-30,2024-09-05,Rajahmundry,17.0005383,81.8040345
"Gandhi Shilp Bazar National, States, District",GSB(District)-Dhanbad,10/09/2024 to 16/09/2024,2024-08-10 23:45:00,https://indian.handicrafts.gov.in/en/events/view/Mjc1,2024-08-10,23:45:00,2024-09-10,2024-09-16,Dhanbad,23.7956531,86.43038589999999
"Gandhi Shilp Bazar National, States, District",GSB(State)-Durgapur UH,13/09/2024 to 22/09/2024,2024-08-10 23:45:00,https://indian.handicrafts.gov.in/en/events/view/Mjg5,2024-08-10,23:45:00,2024-09-13,2024-09-22,Durgapur UH,23.5204443,87.3119227
"Gandhi Shilp Bazar National, States, District",GSB(State)-Surat,13/09/2024 to 22/09/2024,2024-08-10 23:45:00,https://indian.handicrafts.gov.in/en/events/view/Mjkw,2024-08-10,23:45:00,2024-09-13,2024-09-22,Surat,21.1702401,72.83106070000001
"Gandhi Shilp Bazar National, States, District",GSB(District)-Indore UH,13/09/2024 to 19/09/2024,2024-08-05 23:45:00,https://indian.handicrafts.gov.in/en/events/view/Mjgz,2024-08-05,23:45:00,2024-09-13,2024-09-19,Indore UH,22.7195687,75.8577258
"Gandhi Shilp Bazar National, States, District",GSB(District)-Jhansi UH,14/09/2024 to 20/09/2024,2024-08-05 23:45:00,https://indian.handicrafts.gov.in/en/events/view/Mjg1,2024-08-05,23:45:00,2024-09-14,2024-09-20,Jhansi UH,25.4487699,78.5697526
"Gandhi Shilp Bazar National, States, District",GSB(State)-Shimla,08/09/2024 to 17/09/2024,2024-08-05 23:45:00,https://indian.handicrafts.gov.in/en/events/view/Mjg4,2024-08-05,23:45:00,2024-09-08,2024-09-17,Shimla,31.104963,77.1639874
"Gandhi Shilp Bazar National, States, District",GSB(District)-Agra UH,05/09/2024 to 11/09/2024,2024-08-05 23:45:00,https://indian.handicrafts.gov.in/en/events/view/Mjky,2024-08-05,23:45:00,2024-09-05,2024-09-11,Agra UH,27.1766701,78.00807449999999
Dilli Haat,Dilli Haat (Sustainable Crafts),01/09/2024 to 15/09/2024,2024-07-30 16:45:00,https://indian.handicrafts.gov.in/en/events/view/MjYy,2024-07-30,16:45:00,2024-09-01,2024-09-15,Delhi,28.7040592,77.10249019999999
"Gandhi Shilp Bazar National, States, District",GSB(District)-Jodhpur UH,02/08/2024 to 08/08/2024,2024-07-28 23:45:00,https://indian.handicrafts.gov.in/en/events/view/Mjk0,2024-07-28,23:45:00,2024-08-02,2024-08-08,Jodhpur UH,26.2389469,73.02430939999999
"Gandhi Shilp Bazar National, States, District",GSB(District)-Mangaluru UH,16/09/2024 to 22/09/2024,2024-07-20 23:45:00,https://indian.handicrafts.gov.in/en/events/view/Mjc4,2024-07-20,23:45:00,2024-09-16,2024-09-22,Mangaluru UH,12.8854777,74.8388112
"Gandhi Shilp Bazar National, States, District",GSB (District)- Bhopal,11/09/2024 to 17/09/2024,2024-07-15 23:45:00,https://indian.handicrafts.gov.in/en/events/view/Mjc2,2024-07-15,23:45:00,2024-09-11,2024-09-17,Bhopal,23.2599333,77.412615
"Gandhi Shilp Bazar National, States, District",GSB(State)-Srinagar,01/08/2024 to 10/08/2024,2024-07-15 23:45:00,https://indian.handicrafts.gov.in/en/events/view/Mjg2,2024-07-15,23:45:00,2024-08-01,2024-08-10,Srinagar,34.0836708,74.7972825
"Gandhi Shilp Bazar National, States, District",GSB(District) at Hazaribagh UH,07/08/2024 to 13/08/2024,2024-06-30 23:45:00,https://indian.handicrafts.gov.in/en/events/view/Mjc0,2024-06-30,23:45:00,2024-08-07,2024-08-13,Hazaribagh UH,23.9924669,85.3636758
Dilli Haat,Dilli Haat (Handloom Day),01/08/2024 to 15/08/2024,2024-06-30 16:30:00,https://indian.handicrafts.gov.in/en/events/view/MjYw,2024-06-30,16:30:00,2024-08-01,2024-08-15,Delhi,28.7040592,77.10249019999999
Dilli Haat,Dilli Haat (Shilp Didi),16/08/2024 to 31/08/2024,2024-06-30 16:30:00,https://indian.handicrafts.gov.in/en/events/view/MjYx,2024-06-30,16:30:00,2024-08-16,2024-08-31,Delhi,28.7040592,77.10249019999999
"Gandhi Shilp Bazar National, States, District",GSB(District) at Salem,06/08/2024 to 12/08/2024,2024-06-28 23:45:00,https://indian.handicrafts.gov.in/en/events/view/Mjcz,2024-06-28,23:45:00,2024-08-06,2024-08-12,Salem,42.5197473,-70.8954626
"Gandhi Shilp Bazar National, States, District",GSB(District) at Mysuru,02/08/2024 to 08/08/2024,2024-06-27 23:45:00,https://indian.handicrafts.gov.in/en/events/view/Mjcy,2024-06-27,23:45:00,2024-08-02,2024-08-08,Mysuru,12.2958104,76.6393805
"Gandhi Shilp Bazar National, States, District",GSB (District) at Dimapur UH,01/08/2024 to 07/08/2024,2024-06-25 23:45:00,https://indian.handicrafts.gov.in/en/events/view/MjY4,2024-06-25,23:45:00,2024-08-01,2024-08-07,Dimapur UH,25.9091406,93.72656049999999
"Gandhi Shilp Bazar National, States, District",GSB(District) at Leh,01/08/2024 to 07/08/2024,2024-06-25 23:45:00,https://indian.handicrafts.gov.in/en/events/view/Mjcx,2024-06-25,23:45:00,2024-08-01,2024-08-07,Leh,34.1525864,77.57705349999999
"Gandhi Shilp Bazar National, States, District",GSB(District)-Rampur UH,01/07/2024 to 07/07/2024,2024-06-23 23:45:00,https://indian.handicrafts.gov.in/en/events/view/Mjgx,2024-06-23,23:45:00,2024-07-01,2024-07-07,Rampur UH,28.798299,79.02202869999999
"Gandhi Shilp Bazar National, States, District",GSB (District) at Jorhat,01/07/2024 to 07/07/2024,2024-06-16 23:45:00,https://indian.handicrafts.gov.in/en/events/view/MjY3,2024-06-16,23:45:00,2024-07-01,2024-07-07,Jorhat,26.7509207,94.2036696
"Gandhi Shilp Bazar National, States, District",GSB (District) at Cherapunjee,01/07/2024 to 07/07/2024,2024-06-16 23:45:00,https://indian.handicrafts.gov.in/en/events/view/MjY5,2024-06-16,23:45:00,2024-07-01,2024-07-07,Cherapunjee,25.2702095,91.7322884
Dilli Haat,Dilli Haat (Start Ups),01/07/2024 to 15/07/2024,2024-05-30 16:15:00,https://indian.handicrafts.gov.in/en/events/view/MjU5,2024-05-30,16:15:00,2024-07-01,2024-07-15,Delhi,28.7040592,77.10249019999999
Dilli Haat,Dilli Haat (GI Craft),01/06/2024 to 15/06/2024,2024-05-20 15:30:00,https://indian.handicrafts.gov.in/en/events/view/MjU3,2024-05-20,15:30:00,2024-06-01,2024-06-15,Delhi,28.7040592,77.10249019999999
Dilli Haat,Dilli Haat (ST artisans),16/06/2024 to 30/06/2024,2024-05-20 13:00:00,https://indian.handicrafts.gov.in/en/events/view/MjU4,2024-05-20,13:00:00,2024-06-16,2024-06-30,Delhi,28.7040592,77.10249019999999
Dilli Haat,Dilli Haat,16/05/2024 to 31/05/2024,2024-05-08 23:45:00,https://indian.handicrafts.gov.in/en/events/view/MjU2,2024-05-08,23:45:00,2024-05-16,2024-05-31,Delhi,28.7040592,77.10249019999999
Dilli Haat,Dilli Haat,01/05/2024 to 15/05/2024,2024-03-31 23:45:00,https://indian.handicrafts.gov.in/en/events/view/MjU1,2024-03-31,23:45:00,2024-05-01,2024-05-15,Delhi,28.7040592,77.10249019999999
Dilli Haat,Dilli Haat,16/04/2024 to 30/04/2024,2024-03-03 23:45:00,https://indian.handicrafts.gov.in/en/events/view/MjQ3,2024-03-03,23:45:00,2024-04-16,2024-04-30,Delhi,28.7040592,77.10249019999999
Dilli Haat,Dilli Haat,01/04/2024 to 15/04/2024,2024-02-29 23:45:00,https://indian.handicrafts.gov.in/en/events/view/MjQ2,2024-02-29,23:45:00,2024-04-01,2024-04-15,Delhi,28.7040592,77.10249019999999
Dilli Haat,Dilli Haat,01/03/2024 to 15/03/2024,2024-02-14 17:00:00,https://indian.handicrafts.gov.in/en/events/view/MjQy,2024-02-14,17:00:00,2024-03-01,2024-03-15,Delhi,28.7040592,77.10249019999999
Dilli Haat,Dilli Haat,16/02/2024 to 29/02/2024,2024-01-14 23:45:00,https://indian.handicrafts.gov.in/en/events/view/MjI3,2024-01-14,23:45:00,2024-02-16,2024-02-29,Delhi,28.7040592,77.10249019999999
